[{"name":"Janville-en-Beauce","insee":"28199","lon":1.8503453586490983,"lat":48.19876514773206,"postcode":"28310"},{"name":"Jaudrais","insee":"28200","lon":1.1225880762986626,"lat":48.573976936511016,"postcode":"28250"},{"name":"Louvilliers-lès-Perche","insee":"28217","lon":1.066015288114766,"lat":48.61624055149702,"postcode":"28250"},{"name":"Moulhard","insee":"28273","lon":1.011459760185126,"lat":48.21272444752111,"postcode":"28160"},{"name":"Prunay-le-Gillon","insee":"28309","lon":1.6353626844241493,"lat":48.36635251191619,"postcode":"28360"},{"name":"Puiseux","insee":"28312","lon":1.3684414553097317,"lat":48.639039834032694,"postcode":"28170"},{"name":"Baye","insee":"29005","lon":-3.6132344888630112,"lat":47.85585269987857,"postcode":"29300"},{"name":"Botmeur","insee":"29013","lon":-3.9227135559445028,"lat":48.376856039079826,"postcode":"29690"},{"name":"Kergloff","insee":"29089","lon":-3.6459139575967834,"lat":48.280182629552115,"postcode":"29270"},{"name":"Landudal","insee":"29107","lon":-3.97782805876693,"lat":48.05668857313515,"postcode":"29510"},{"name":"Loc-Brévalaire","insee":"29126","lon":-4.407112229029026,"lat":48.5541101799201,"postcode":"29260"},{"name":"Logonna-Daoulas","insee":"29137","lon":-4.288588754543062,"lat":48.328567342975106,"postcode":"29460"},{"name":"Melgven","insee":"29146","lon":-3.841853863757281,"lat":47.91303856425291,"postcode":"29140"},{"name":"Saint-Nic","insee":"29256","lon":-4.280458475728611,"lat":48.21099928188342,"postcode":"29550"},{"name":"Saint-Sauveur","insee":"29262","lon":-4.000249112803794,"lat":48.44826427216528,"postcode":"29400"},{"name":"Saint-Urbain","insee":"29270","lon":-4.222060031673515,"lat":48.39706686831788,"postcode":"29800"},{"name":"Tréouergat","insee":"29299","lon":-4.60187396213942,"lat":48.494960852282844,"postcode":"29290"},{"name":"Coti-Chiavari","insee":"2A098","lon":8.752885875550854,"lat":41.76920208271671,"postcode":"20138"},{"name":"Peri","insee":"2A209","lon":8.912432065100326,"lat":42.00410790422215,"postcode":"20167"},{"name":"Villanova","insee":"2A351","lon":8.670019721319273,"lat":41.96322958886321,"postcode":"20167"},{"name":"Zigliara","insee":"2A360","lon":8.983549825819988,"lat":41.834492826381066,"postcode":"20190"},{"name":"Ampriani","insee":"2B015","lon":9.356982687872975,"lat":42.25407023369035,"postcode":"20272"},{"name":"Calacuccia","insee":"2B047","lon":9.034455022713914,"lat":42.323338195951536,"postcode":"20224"},{"name":"Carpineto","insee":"2B067","lon":9.38003867805961,"lat":42.35581560694221,"postcode":"20229"},{"name":"Focicchia","insee":"2B116","lon":9.29262963173726,"lat":42.250216963116564,"postcode":"20212"},{"name":"Moltifao","insee":"2B162","lon":9.123340536625214,"lat":42.47431181167954,"postcode":"20218"},{"name":"Montegrosso","insee":"2B167","lon":8.855619478798207,"lat":42.543663728641675,"postcode":"20214"},{"name":"Tallone","insee":"2B320","lon":9.465647086303814,"lat":42.18436484454066,"postcode":"20270"},{"name":"Aumessas","insee":"30025","lon":3.513374458805607,"lat":44.011583250807654,"postcode":"30770"},{"name":"Carsan","insee":"30070","lon":4.585328980488788,"lat":44.23018701839191,"postcode":"30130"},{"name":"Chamborigaud","insee":"30080","lon":3.962447082411867,"lat":44.30006074753604,"postcode":"30530"},{"name":"Cornillon","insee":"30096","lon":4.49445232601907,"lat":44.21897954389335,"postcode":"30630"},{"name":"Gailhan","insee":"30121","lon":4.02846588389533,"lat":43.84768942351846,"postcode":"30260"},{"name":"Logrian-Florian","insee":"30150","lon":4.024696605670629,"lat":43.94652428500562,"postcode":"30610"},{"name":"Méjannes-lès-Alès","insee":"30165","lon":4.15096364514814,"lat":44.101736153325845,"postcode":"30340"},{"name":"Montfrin","insee":"30179","lon":4.59199133995421,"lat":43.875176131114664,"postcode":"30490"},{"name":"Orthoux-Sérignac-Quilhan","insee":"30192","lon":4.043372273352872,"lat":43.887202052138626,"postcode":"30260"},{"name":"Saint-Alexandre","insee":"30226","lon":4.631650076279827,"lat":44.22402097036798,"postcode":"30130"},{"name":"Saint-Maximin","insee":"30286","lon":4.455941378203361,"lat":43.988139089862635,"postcode":"30700"},{"name":"Saint-Paulet-de-Caisson","insee":"30290","lon":4.586733467786312,"lat":44.26092846509877,"postcode":"30130"},{"name":"Saint-Pons-la-Calm","insee":"30292","lon":4.554399925759767,"lat":44.09927961704686,"postcode":"30330"},{"name":"Sommières","insee":"30321","lon":4.082502582133717,"lat":43.77551639963022,"postcode":"30250"},{"name":"Valliguières","insee":"30340","lon":4.589851363174787,"lat":44.008375933804984,"postcode":"30210"},{"name":"Verfeuil","insee":"30343","lon":4.4484507863270775,"lat":44.16579256915394,"postcode":"30630"},{"name":"Beauteville","insee":"31054","lon":1.733433196875041,"lat":43.349040544192796,"postcode":"31290"},{"name":"Cadours","insee":"31098","lon":1.0465807255431263,"lat":43.72646438133836,"postcode":"31480"},{"name":"Castelginest","insee":"31116","lon":1.435210239323966,"lat":43.697441903099254,"postcode":"31780"},{"name":"Corronsac","insee":"31151","lon":1.4902347390779813,"lat":43.471450446964994,"postcode":"31450"},{"name":"Couladère","insee":"31153","lon":1.0934024072119808,"lat":43.196549728484364,"postcode":"31220"},{"name":"Le Faget","insee":"31179","lon":1.8259060246449672,"lat":43.565006531139446,"postcode":"31460"},{"name":"Figarol","insee":"31183","lon":0.9053404786067186,"lat":43.085868901521046,"postcode":"31260"},{"name":"Gauré","insee":"31215","lon":1.6370241461414121,"lat":43.61722225948209,"postcode":"31590"},{"name":"Juzes","insee":"31243","lon":1.7933727904837184,"lat":43.44720079108488,"postcode":"31540"},{"name":"Lagarde","insee":"31262","lon":1.6966375316443847,"lat":43.345573415843766,"postcode":"31290"},{"name":"Lilhac","insee":"31301","lon":0.8092327273441482,"lat":43.285131634440546,"postcode":"31230"},{"name":"Mauvezin","insee":"31333","lon":0.9208659924248365,"lat":43.38460415177848,"postcode":"31230"},{"name":"Montbernard","insee":"31363","lon":0.7673583613152979,"lat":43.30416381863641,"postcode":"31230"},{"name":"Montrabé","insee":"31389","lon":1.5289148627287785,"lat":43.64227320409046,"postcode":"31850"},{"name":"Pinsaguel","insee":"31420","lon":1.3941311093791682,"lat":43.50293635885949,"postcode":"31120"},{"name":"Pouy-de-Touges","insee":"31436","lon":1.0492806790977836,"lat":43.33630228845199,"postcode":"31430"},{"name":"Roumens","insee":"31463","lon":1.9360098594688226,"lat":43.46452864236798,"postcode":"31540"},{"name":"Sajas","insee":"31520","lon":1.0253565714014172,"lat":43.37537758660673,"postcode":"31370"},{"name":"Terrebasse","insee":"31552","lon":0.9718044846044964,"lat":43.239158783679166,"postcode":"31420"},{"name":"Avéron-Bergelle","insee":"32022","lon":0.06622825641649044,"lat":43.756144476784655,"postcode":"32290"},{"name":"Béraut","insee":"32044","lon":0.40696145151961316,"lat":43.92477060741617,"postcode":"32100"},{"name":"Bernède","insee":"32046","lon":-0.22081112600218036,"lat":43.670218626518306,"postcode":"32400"},{"name":"Cadeilhan","insee":"32068","lon":0.768638879875608,"lat":43.83012591967671,"postcode":"32380"},{"name":"Castillon-Debats","insee":"32088","lon":0.21966651410399174,"lat":43.73111559939794,"postcode":"32190"},{"name":"Céran","insee":"32101","lon":0.6982635145290333,"lat":43.8152778147959,"postcode":"32500"},{"name":"Courrensan","insee":"32110","lon":0.24235914029056985,"lat":43.84262408502756,"postcode":"32330"},{"name":"Lamothe-Goas","insee":"32188","lon":0.5701300052761454,"lat":43.86891582017168,"postcode":"32500"},{"name":"Monlaur-Bernet","insee":"32272","lon":0.5125206252231023,"lat":43.348527874849516,"postcode":"32140"},{"name":"Monties","insee":"32287","lon":0.6810632230861843,"lat":43.391925179952324,"postcode":"32420"},{"name":"Noulens","insee":"32299","lon":0.1612850781024078,"lat":43.80454197085206,"postcode":"32800"},{"name":"Plaisance","insee":"32319","lon":0.04391143374950365,"lat":43.6006949975207,"postcode":"32160"},{"name":"Saint-Avit-Frandat","insee":"32364","lon":0.6602407826690163,"lat":43.983117658020156,"postcode":"32700"},{"name":"Saint-Martin","insee":"32389","lon":0.37436466344437513,"lat":43.50772271592908,"postcode":"32300"},{"name":"Saint-Soulan","insee":"32407","lon":0.8603262649438731,"lat":43.508484518146865,"postcode":"32220"},{"name":"Biganos","insee":"33051","lon":-0.9491636466333849,"lat":44.66095020983047,"postcode":"33380"},{"name":"Cavignac","insee":"33114","lon":-0.38191268679386237,"lat":45.096764830553944,"postcode":"33620"},{"name":"Eynesse","insee":"33160","lon":0.149120724055621,"lat":44.819741571291544,"postcode":"33220"},{"name":"Gironde-sur-Dropt","insee":"33187","lon":-0.08789946460594679,"lat":44.59132816759687,"postcode":"33190"},{"name":"Lerm-et-Musset","insee":"33239","lon":-0.1513514087839953,"lat":44.34035631222851,"postcode":"33840"},{"name":"Macau","insee":"33262","lon":-0.6156508614044145,"lat":45.00203097011459,"postcode":"33460"},{"name":"Margueron","insee":"33269","lon":0.25635020152949306,"lat":44.766188893795295,"postcode":"33220"},{"name":"Montussan","insee":"33293","lon":-0.42922358658926824,"lat":44.88304833976441,"postcode":"33450"},{"name":"Saint-Antoine-du-Queyret","insee":"33372","lon":0.008997333080873294,"lat":44.76236006878333,"postcode":"33790"},{"name":"Saint-Antoine-sur-l'Isle","insee":"33373","lon":0.04559335609809744,"lat":45.04680040553256,"postcode":"33660"},{"name":"Saint-Magne","insee":"33436","lon":-0.6585052791125858,"lat":44.55460169147125,"postcode":"33125"},{"name":"Saint-Pey-d'Armens","insee":"33459","lon":-0.11751214538119593,"lat":44.85497556492663,"postcode":"33330"},{"name":"Soussans","insee":"33517","lon":-0.6996096781792965,"lat":45.05576492229595,"postcode":"33460"},{"name":"Vertheuil","insee":"33545","lon":-0.8454043745432106,"lat":45.25428081518163,"postcode":"33180"},{"name":"Le Bosc","insee":"34036","lon":3.3872237714952576,"lat":43.695980349364795,"postcode":"34700"},{"name":"Frontignan","insee":"34108","lon":3.749576616579739,"lat":43.448133683755955,"postcode":"34110"},{"name":"Les Matelles","insee":"34153","lon":3.8066926482179277,"lat":43.72787868936589,"postcode":"34270"},{"name":"Pardailhan","insee":"34193","lon":2.8371703123386407,"lat":43.44496948442217,"postcode":"34360"},{"name":"Prémian","insee":"34219","lon":2.8226599893842197,"lat":43.539066212199,"postcode":"34390"},{"name":"Le Puech","insee":"34220","lon":3.3252076755865607,"lat":43.68283396826864,"postcode":"34700"},{"name":"Saint-Jean-de-la-Blaquière","insee":"34268","lon":3.430382743102356,"lat":43.709906953091014,"postcode":"34700"},{"name":"Saussan","insee":"34295","lon":3.7795518345136303,"lat":43.568637802748405,"postcode":"34570"},{"name":"Le Soulié","insee":"34305","lon":2.689867342455734,"lat":43.54310495892005,"postcode":"34330"},{"name":"Baguer-Morvan","insee":"35009","lon":-1.7716877633862171,"lat":48.50486670171646,"postcode":"35120"},{"name":"Bléruais","insee":"35026","lon":-2.1155485927739304,"lat":48.11585179989844,"postcode":"35750"},{"name":"Champeaux","insee":"35052","lon":-1.3008218711245072,"lat":48.1388596292254,"postcode":"35500"},{"name":"La Chapelle-de-Brain","insee":"35064","lon":-1.9348815673813846,"lat":47.69757349467855,"postcode":"35660"},{"name":"Châteauneuf-d'Ille-et-Vilaine","insee":"35070","lon":-1.9284954537688372,"lat":48.55802217069095,"postcode":"35430"},{"name":"Chauvigné","insee":"35075","lon":-1.452165796745462,"lat":48.37652362164467,"postcode":"35490"},{"name":"Dol-de-Bretagne","insee":"35095","lon":-1.7420828657421399,"lat":48.536576454899965,"postcode":"35120"},{"name":"Domloup","insee":"35099","lon":-1.5429527529504192,"lat":48.06846551425489,"postcode":"35410"},{"name":"La Fresnais","insee":"35116","lon":-1.8352100900894586,"lat":48.58768702702083,"postcode":"35111"},{"name":"Lohéac","insee":"35155","lon":-1.8887569533413062,"lat":47.87259088418469,"postcode":"35550"},{"name":"Miniac-sous-Bécherel","insee":"35180","lon":-1.9268723814866873,"lat":48.28102086604454,"postcode":"35190"},{"name":"Le Pertre","insee":"35217","lon":-1.056081467955744,"lat":48.03460851750705,"postcode":"35370"},{"name":"Piré-Chancé","insee":"35220","lon":-1.4215004847157346,"lat":48.01351680305809,"postcode":"35150"},{"name":"Romillé","insee":"35245","lon":-1.878721878596426,"lat":48.22242043247925,"postcode":"35850"},{"name":"Saint-Symphorien","insee":"35317","lon":-1.8031497826557576,"lat":48.280270451880995,"postcode":"35630"},{"name":"Trémeheuc","insee":"35342","lon":-1.6973721174473604,"lat":48.4385592170784,"postcode":"35270"},{"name":"Fléré-la-Rivière","insee":"36074","lon":1.0931760540762354,"lat":46.996968636866384,"postcode":"36700"},{"name":"Lureuil","insee":"36105","lon":1.0376061057776247,"lat":46.74675290749323,"postcode":"36220"},{"name":"Maillet","insee":"36110","lon":1.677732297445864,"lat":46.58027158639518,"postcode":"36340"},{"name":"Neuillay-les-Bois","insee":"36139","lon":1.4785830299819598,"lat":46.762375975267084,"postcode":"36500"},{"name":"Pouligny-Saint-Martin","insee":"36164","lon":2.0056842239890496,"lat":46.5150281253161,"postcode":"36160"},{"name":"Pouligny-Saint-Pierre","insee":"36165","lon":1.0465033969815185,"lat":46.684261830451305,"postcode":"36300"},{"name":"Saint-Michel-en-Brenne","insee":"36204","lon":1.1745330014416657,"lat":46.78810112308892,"postcode":"36290"},{"name":"Azay-sur-Indre","insee":"37016","lon":0.9431692817279478,"lat":47.204076910150576,"postcode":"37310"},{"name":"Bridoré","insee":"37039","lon":1.0786728106872832,"lat":47.03666542290383,"postcode":"37600"},{"name":"Chaveignes","insee":"37065","lon":0.3517735396230008,"lat":47.023557682492694,"postcode":"37120"},{"name":"Joué-lès-Tours","insee":"37122","lon":0.6540568775551767,"lat":47.33294111381226,"postcode":"37300"},{"name":"Rillé","insee":"37198","lon":0.21830780205558212,"lat":47.44578169542102,"postcode":"37340"},{"name":"Saint-Aubin-le-Dépeint","insee":"37207","lon":0.39682753380287455,"lat":47.61788066223895,"postcode":"37370"},{"name":"Saint-Flovier","insee":"37218","lon":1.0211844988736565,"lat":46.97161695812666,"postcode":"37600"},{"name":"Savonnières","insee":"37243","lon":0.5580463374996049,"lat":47.34658468121953,"postcode":"37510"},{"name":"Anthon","insee":"38011","lon":5.154304868678112,"lat":45.78492316561606,"postcode":"38280"},{"name":"Chirens","insee":"38105","lon":5.556160373686763,"lat":45.41639912496943,"postcode":"38850"},{"name":"Chozeau","insee":"38109","lon":5.209828810474505,"lat":45.69942231686634,"postcode":"38460"},{"name":"Corbelin","insee":"38124","lon":5.552978142182712,"lat":45.6026195470229,"postcode":"38630"},{"name":"Jarrie","insee":"38200","lon":5.746669618183237,"lat":45.11102282835526,"postcode":"38560"},{"name":"Moidieu-Détourbe","insee":"38238","lon":5.02160374379733,"lat":45.51216588656916,"postcode":"38440"},{"name":"Pontcharra","insee":"38314","lon":6.020923769972305,"lat":45.41980532760437,"postcode":"38530"},{"name":"Pont-Évêque","insee":"38318","lon":4.923665831501617,"lat":45.534655035232156,"postcode":"38780"},{"name":"Rochetoirin","insee":"38341","lon":5.416278650238893,"lat":45.58806291028462,"postcode":"38110"},{"name":"Saint-Hilaire-de-la-Côte","insee":"38393","lon":5.329530010614476,"lat":45.38951436402547,"postcode":"38260"},{"name":"Saint-Mury-Monteymond","insee":"38430","lon":5.9330694614283574,"lat":45.20655135690378,"postcode":"38190"},{"name":"Siccieu-Saint-Julien-et-Carisieu","insee":"38488","lon":5.314437471967929,"lat":45.73024420176189,"postcode":"38460"},{"name":"Theys","insee":"38504","lon":6.0136028042048615,"lat":45.297483475137916,"postcode":"38570"},{"name":"Veurey-Voroize","insee":"38540","lon":5.602128540903463,"lat":45.269707947934094,"postcode":"38113"},{"name":"Les Arsures","insee":"39019","lon":5.784483342985046,"lat":46.95295420899812,"postcode":"39600"},{"name":"Bersaillin","insee":"39049","lon":5.595263136500782,"lat":46.857207385484934,"postcode":"39800"},{"name":"Les Bouchoux","insee":"39068","lon":5.804692374645143,"lat":46.29422990567706,"postcode":"39370"},{"name":"Buvilly","insee":"39081","lon":5.725636754122832,"lat":46.869680496894226,"postcode":"39800"},{"name":"Charnod","insee":"39111","lon":5.493504031948485,"lat":46.337092922806036,"postcode":"39240"},{"name":"Cuvier","insee":"39187","lon":6.066041819101018,"lat":46.83885176592097,"postcode":"39250"},{"name":"Les Deux-Fays","insee":"39196","lon":5.487783836503911,"lat":46.88561850311079,"postcode":"39230"},{"name":"Fay-en-Montagne","insee":"39222","lon":5.71729353542316,"lat":46.75376262904624,"postcode":"39800"},{"name":"Loulle","insee":"39301","lon":5.883216525828686,"lat":46.7053677120881,"postcode":"39300"},{"name":"Mesnois","insee":"39326","lon":5.67699259945536,"lat":46.59442423653113,"postcode":"39130"},{"name":"Monteplain","insee":"39352","lon":5.711259360676156,"lat":47.15928825084908,"postcode":"39700"},{"name":"Montrevel","insee":"39363","lon":5.494519124732588,"lat":46.42622676080217,"postcode":"39320"},{"name":"Ounans","insee":"39399","lon":5.663148752082731,"lat":46.99074380098642,"postcode":"39380"},{"name":"Pointre","insee":"39432","lon":5.490205064878413,"lat":47.222088323298365,"postcode":"39290"},{"name":"Arengosse","insee":"40006","lon":-0.7871622839142085,"lat":44.03374720167084,"postcode":"40110"},{"name":"Arx","insee":"40015","lon":0.08652828286056746,"lat":44.11257630544643,"postcode":"40310"},{"name":"Bélus","insee":"40034","lon":-1.1169349760694562,"lat":43.59315496124992,"postcode":"40300"},{"name":"Campet-et-Lamolère","insee":"40062","lon":-0.5896185538133075,"lat":43.915269007975446,"postcode":"40090"},{"name":"Donzacq","insee":"40090","lon":-0.8068943187979911,"lat":43.659079588931654,"postcode":"40360"},{"name":"Hontanx","insee":"40127","lon":-0.2599950192766203,"lat":43.81563136249148,"postcode":"40190"},{"name":"Horsarrieu","insee":"40128","lon":-0.601347952963685,"lat":43.68761463601534,"postcode":"40700"},{"name":"Larrivière-Saint-Savin","insee":"40145","lon":-0.4250266761485604,"lat":43.755322079063305,"postcode":"40270"},{"name":"Losse","insee":"40158","lon":-0.09021301660576565,"lat":44.09505543053661,"postcode":"40240"},{"name":"Peyre","insee":"40223","lon":-0.557688974048409,"lat":43.57175854297826,"postcode":"40700"},{"name":"Le Vignau","insee":"40329","lon":-0.2876742262287874,"lat":43.78105515454219,"postcode":"40270"},{"name":"Boisseau","insee":"41019","lon":1.3057893871535609,"lat":47.77362891572351,"postcode":"41290"},{"name":"Concriers","insee":"41058","lon":1.4827865273799827,"lat":47.77771493176363,"postcode":"41370"},{"name":"Gy-en-Sologne","insee":"41099","lon":1.5941173177355872,"lat":47.3417728528012,"postcode":"41230"},{"name":"Lisle","insee":"41116","lon":1.1072881140122741,"lat":47.868435903602986,"postcode":"41100"},{"name":"Millançay","insee":"41140","lon":1.7803976764396143,"lat":47.4506748388306,"postcode":"41200"},{"name":"Monthou-sur-Bièvre","insee":"41145","lon":1.2708266609232206,"lat":47.46214940755035,"postcode":"41120"},{"name":"Pruniers-en-Sologne","insee":"41185","lon":1.6795326847223389,"lat":47.34049694615822,"postcode":"41200"},{"name":"Sainte-Anne","insee":"41200","lon":1.0834571481428232,"lat":47.75911692846509,"postcode":"41100"},{"name":"Selles-Saint-Denis","insee":"41241","lon":1.906982918148947,"lat":47.37602077147371,"postcode":"41300"},{"name":"Bellegarde-en-Forez","insee":"42013","lon":4.309280627273666,"lat":45.64090329448826,"postcode":"42210"},{"name":"Cezay","insee":"42035","lon":3.9648954715328353,"lat":45.802355417148206,"postcode":"42130"},{"name":"Champdieu","insee":"42046","lon":4.050585058514552,"lat":45.641574681508274,"postcode":"42600"},{"name":"Feurs","insee":"42094","lon":4.223290437377311,"lat":45.73216012159527,"postcode":"42110"},{"name":"Graix","insee":"42101","lon":4.560539551464775,"lat":45.360675734070256,"postcode":"42220"},{"name":"Montbrison","insee":"42147","lon":4.072032626791592,"lat":45.60073535825539,"postcode":"42600"},{"name":"Montchal","insee":"42148","lon":4.328037477247621,"lat":45.82381254949713,"postcode":"42360"},{"name":"Nollieux","insee":"42160","lon":3.990191222220529,"lat":45.818451172955584,"postcode":"42260"},{"name":"La Pacaudière","insee":"42163","lon":3.8804749900233793,"lat":46.18472828107501,"postcode":"42310"},{"name":"Pinay","insee":"42171","lon":4.133836388758022,"lat":45.87110315710429,"postcode":"42590"},{"name":"Saint-Bonnet-le-Château","insee":"42204","lon":4.065262472432488,"lat":45.42507076933009,"postcode":"42380"},{"name":"Saint-Galmier","insee":"42222","lon":4.31544715839118,"lat":45.60370481385076,"postcode":"42330"},{"name":"Saint-Hilaire-sous-Charlieu","insee":"42236","lon":4.1828706528294255,"lat":46.120791343688566,"postcode":"42190"},{"name":"Saint-Nizier-sous-Charlieu","insee":"42267","lon":4.127563622685998,"lat":46.16203317011411,"postcode":"42190"},{"name":"Saint-Paul-en-Cornillon","insee":"42270","lon":4.238894686376793,"lat":45.3964945419789,"postcode":"42240"},{"name":"Saint-Priest-la-Prugne","insee":"42276","lon":3.7419793861074315,"lat":45.94621684267892,"postcode":"42830"},{"name":"Saint-Priest-la-Roche","insee":"42277","lon":4.106965802980058,"lat":45.920050295623426,"postcode":"42590"},{"name":"Saint-Victor-sur-Rhins","insee":"42293","lon":4.282674584623002,"lat":46.00555437961107,"postcode":"42630"},{"name":"Veauchette","insee":"42324","lon":4.25079145682796,"lat":45.56204724012527,"postcode":"42340"},{"name":"Borne","insee":"43036","lon":3.7922049538916434,"lat":45.09422544600608,"postcode":"43350"},{"name":"Frugières-le-Pin","insee":"43100","lon":3.498832918214964,"lat":45.27109141342721,"postcode":"43230"},{"name":"Le Monteil","insee":"43140","lon":3.9121387535587018,"lat":45.06743227134528,"postcode":"43700"},{"name":"Montusclat","insee":"43143","lon":4.114493854126285,"lat":45.00979403081243,"postcode":"43260"},{"name":"Saint-Bérain","insee":"43171","lon":3.6290842498504987,"lat":45.030321565198776,"postcode":"43300"},{"name":"Saint-Étienne-sur-Blesle","insee":"43182","lon":3.1247499701173025,"lat":45.30452894651952,"postcode":"43450"},{"name":"Saint-Victor-Malescours","insee":"43227","lon":4.324886778047166,"lat":45.294426154988436,"postcode":"43140"},{"name":"Saint-Vincent","insee":"43230","lon":3.8984267528642147,"lat":45.152307657773015,"postcode":"43800"},{"name":"Solignac-sur-Loire","insee":"43241","lon":3.8805489316311217,"lat":44.95758915058582,"postcode":"43370"},{"name":"Besné","insee":"44013","lon":-2.074553481916828,"lat":47.38037390077833,"postcode":"44160"},{"name":"Le Cellier","insee":"44028","lon":-1.3601067077507443,"lat":47.337515008614226,"postcode":"44850"},{"name":"La Chapelle-sur-Erdre","insee":"44035","lon":-1.5604271315532257,"lat":47.30310758315178,"postcode":"44240"},{"name":"Moisdon-la-Rivière","insee":"44099","lon":-1.3744130980452618,"lat":47.62224630472527,"postcode":"44520"},{"name":"La Montagne","insee":"44101","lon":-1.6839719796457593,"lat":47.184961153815415,"postcode":"44620"},{"name":"Teillé","insee":"44202","lon":-1.2867964090500965,"lat":47.464118932104675,"postcode":"44440"},{"name":"Le Bardon","insee":"45020","lon":1.6490100817687185,"lat":47.84208618774076,"postcode":"45130"},{"name":"Beaulieu-sur-Loire","insee":"45029","lon":2.8025493892059616,"lat":47.53554716693646,"postcode":"45630"},{"name":"Châtenoy","insee":"45084","lon":2.405500199814357,"lat":47.916024380834635,"postcode":"45260"},{"name":"Chapet","insee":"78140","lon":1.9389572391557446,"lat":48.96830840431346,"postcode":"78130"},{"name":"Civry-la-Forêt","insee":"78163","lon":1.6170870658772072,"lat":48.864393876646204,"postcode":"78910"},{"name":"Fontenay-Saint-Père","insee":"78246","lon":1.753967921246388,"lat":49.0281636435684,"postcode":"78440"},{"name":"Goussonville","insee":"78281","lon":1.7667343392495491,"lat":48.923344548606295,"postcode":"78930"},{"name":"Guerville","insee":"78291","lon":1.7405913588194357,"lat":48.952302672181226,"postcode":"78930"},{"name":"Mézières-sur-Seine","insee":"78402","lon":1.782866357878393,"lat":48.95294922106674,"postcode":"78970"},{"name":"Mulcent","insee":"78439","lon":1.6518689496013998,"lat":48.87864783620562,"postcode":"78790"},{"name":"Rambouillet","insee":"78517","lon":1.8264076451227582,"lat":48.65354429913581,"postcode":"78120"},{"name":"Saulx-Marchais","insee":"78588","lon":1.8370577164887514,"lat":48.84604443624631,"postcode":"78650"},{"name":"Champdeniers","insee":"79066","lon":-0.3829291519914804,"lat":46.48015005000201,"postcode":"79220"},{"name":"Chanteloup","insee":"79069","lon":-0.5051062993805328,"lat":46.762563856275264,"postcode":"79320"},{"name":"Chenay","insee":"79084","lon":-0.011599211984743351,"lat":46.33064133367056,"postcode":"79120"},{"name":"Couture-d'Argenson","insee":"79106","lon":-0.08472385657052443,"lat":45.99570004665061,"postcode":"79110"},{"name":"Fénery","insee":"79118","lon":-0.36417523413819664,"lat":46.68475722129665,"postcode":"79450"},{"name":"Les Forges","insee":"79124","lon":-0.02013433775584805,"lat":46.54279939907267,"postcode":"79340"},{"name":"Glénay","insee":"79134","lon":-0.24117450652848085,"lat":46.85651116009912,"postcode":"79330"},{"name":"Irais","insee":"79141","lon":-0.09623511172974908,"lat":46.87569602511446,"postcode":"79600"},{"name":"Louzy","insee":"79157","lon":-0.18096959870628693,"lat":47.01742007663183,"postcode":"79100"},{"name":"Marnes","insee":"79167","lon":-0.01793110099355774,"lat":46.85348024108627,"postcode":"79600"},{"name":"Pamplie","insee":"79200","lon":-0.43899317717634356,"lat":46.52712861120267,"postcode":"79220"},{"name":"Périgné","insee":"79204","lon":-0.24598380319569343,"lat":46.186130189438536,"postcode":"79170"},{"name":"Le Pin","insee":"79210","lon":-0.6523105400176447,"lat":46.87877039560367,"postcode":"79140"},{"name":"Saint-Cyr-la-Lande","insee":"79244","lon":-0.15078222654618115,"lat":47.0505164592349,"postcode":"79100"},{"name":"Saint-Jean-de-Thouars","insee":"79259","lon":-0.21817974780808222,"lat":46.95508219614659,"postcode":"79100"},{"name":"Saint-Maxire","insee":"79281","lon":-0.47974707043094267,"lat":46.399460788917466,"postcode":"79410"},{"name":"Soudan","insee":"79316","lon":-0.09554945871679628,"lat":46.432602002575024,"postcode":"79800"},{"name":"Thénezay","insee":"79326","lon":-0.04116437698779004,"lat":46.71319190490146,"postcode":"79390"},{"name":"Villiers-sur-Chizé","insee":"79352","lon":-0.30402228081282856,"lat":46.09754109515962,"postcode":"79170"},{"name":"Andainville","insee":"80022","lon":1.7847818882562922,"lat":49.89119598015063,"postcode":"80140"},{"name":"Brie","insee":"80141","lon":2.941836702348934,"lat":49.87891645816785,"postcode":"80200"},{"name":"Caix","insee":"80162","lon":2.6458510305050655,"lat":49.810387457871165,"postcode":"80170"},{"name":"Dargnies","insee":"80235","lon":1.5293118710137057,"lat":50.04264798912765,"postcode":"80570"},{"name":"Embreville","insee":"80265","lon":1.5524162974038842,"lat":50.03269346279486,"postcode":"80570"},{"name":"Famechon","insee":"80301","lon":2.032237612130095,"lat":49.76692498961517,"postcode":"80290"},{"name":"Ferrières","insee":"80305","lon":2.1784736963575306,"lat":49.88493175811431,"postcode":"80470"},{"name":"Fouencamps","insee":"80337","lon":2.4079886510200192,"lat":49.81966368185833,"postcode":"80440"},{"name":"Friaucourt","insee":"80364","lon":1.4744322880557121,"lat":50.087753762609374,"postcode":"80460"},{"name":"Gueudecourt","insee":"80397","lon":2.8433726835260513,"lat":50.06088320513719,"postcode":"80360"},{"name":"Halloy-lès-Pernois","insee":"80408","lon":2.202964993483987,"lat":50.04295564450786,"postcode":"80670"},{"name":"Lafresguimont-Saint-Martin","insee":"80456","lon":1.8103834567382622,"lat":49.82318959688264,"postcode":"80430"},{"name":"Liancourt-Fosse","insee":"80473","lon":2.814484675715523,"lat":49.755328163640755,"postcode":"80700"},{"name":"Marché-Allouarde","insee":"80508","lon":2.86349439765474,"lat":49.72374766428467,"postcode":"80700"},{"name":"Port-le-Grand","insee":"80637","lon":1.7595128667683992,"lat":50.155286138281916,"postcode":"80132"},{"name":"Quesnoy-le-Montant","insee":"80654","lon":1.6873328727920494,"lat":50.10595819395008,"postcode":"80132"},{"name":"Rollot","insee":"80678","lon":2.6486293071971643,"lat":49.59386596667893,"postcode":"80500"},{"name":"Senlis-le-Sec","insee":"80733","lon":2.5778181307644217,"lat":50.02767123236812,"postcode":"80300"},{"name":"Sorel-en-Vimeu","insee":"80736","lon":1.9132462920577373,"lat":50.01228789392458,"postcode":"80490"},{"name":"Vaudricourt","insee":"80780","lon":1.5490158482143104,"lat":50.115218962665594,"postcode":"80230"},{"name":"Vecquemont","insee":"80785","lon":2.4423477069971105,"lat":49.89153580775063,"postcode":"80800"},{"name":"Velennes","insee":"80786","lon":2.098072999922293,"lat":49.766882079501094,"postcode":"80160"},{"name":"Vitz-sur-Authie","insee":"80810","lon":2.055767077890582,"lat":50.24713690851722,"postcode":"80150"},{"name":"Almayrac","insee":"81008","lon":2.1560322259260927,"lat":44.09923672662056,"postcode":"81190"},{"name":"Ambialet","insee":"81010","lon":2.3757725957286477,"lat":43.926612631071116,"postcode":"81430"},{"name":"Briatexte","insee":"81039","lon":1.9234271432440435,"lat":43.74755854018645,"postcode":"81390"},{"name":"Busque","insee":"81043","lon":1.9480984706932314,"lat":43.78510021651504,"postcode":"81300"},{"name":"Carbes","insee":"81058","lon":2.152510765807726,"lat":43.6353885852087,"postcode":"81570"},{"name":"Gaillac","insee":"81099","lon":1.8863174191127863,"lat":43.916636084547754,"postcode":"81600"},{"name":"Itzac","insee":"81108","lon":1.845821196967382,"lat":44.05095375234888,"postcode":"81170"},{"name":"Lasfaillades","insee":"81137","lon":2.50020515015778,"lat":43.563235585289775,"postcode":"81260"},{"name":"Magrin","insee":"81151","lon":1.9205630435985894,"lat":43.615134171427215,"postcode":"81220"},{"name":"Missècle","insee":"81169","lon":1.9860908985111674,"lat":43.72115009793554,"postcode":"81300"},{"name":"Saint-Michel-de-Vax","insee":"81265","lon":1.806403763415905,"lat":44.108805497382576,"postcode":"81140"},{"name":"Veilhes","insee":"81310","lon":1.8174141681801685,"lat":43.617454473827046,"postcode":"81500"},{"name":"Villeneuve-lès-Lavaur","insee":"81318","lon":1.7836899999347693,"lat":43.60003567045708,"postcode":"81500"},{"name":"Villeneuve-sur-Vère","insee":"81319","lon":2.030202928848159,"lat":44.00657759565509,"postcode":"81130"},{"name":"Bouloc-en-Quercy","insee":"82021","lon":1.1237792633419892,"lat":44.2997658903832,"postcode":"82110"},{"name":"Cordes-Tolosannes","insee":"82045","lon":1.1361861961771977,"lat":43.97635423150705,"postcode":"82700"},{"name":"Nègrepelisse","insee":"82134","lon":1.5284250879367711,"lat":44.06337059880186,"postcode":"82800"},{"name":"Piquecos","insee":"82140","lon":1.3162196552763021,"lat":44.1048105769454,"postcode":"82130"},{"name":"Saint-Antonin-Noble-Val","insee":"82155","lon":1.7366009457443217,"lat":44.1562464809815,"postcode":"82140"},{"name":"Villemade","insee":"82195","lon":1.2901404035780124,"lat":44.079860166955115,"postcode":"82130"},{"name":"Bagnols-en-Forêt","insee":"83008","lon":6.708933931440249,"lat":43.5332729348633,"postcode":"83600"},{"name":"La Martre","insee":"83074","lon":6.592520510127762,"lat":43.76343121807242,"postcode":"83840"},{"name":"Mazaugues","insee":"83076","lon":5.894998261387121,"lat":43.34466658326746,"postcode":"83136"},{"name":"Saint-Julien","insee":"83113","lon":5.914549560028675,"lat":43.70001838297999,"postcode":"83560"},{"name":"Gargas","insee":"84047","lon":5.343542800217503,"lat":43.896299991162316,"postcode":"84400"},{"name":"Velleron","insee":"84142","lon":5.028204560595545,"lat":43.96142051149285,"postcode":"84740"},{"name":"Visan","insee":"84150","lon":4.944152791724663,"lat":44.32687601595753,"postcode":"84820"},{"name":"Antigny","insee":"85005","lon":-0.7672022682625307,"lat":46.61931192510686,"postcode":"85120"},{"name":"Apremont","insee":"85006","lon":-1.749022388731208,"lat":46.7574808981256,"postcode":"85220"},{"name":"Le Givre","insee":"85101","lon":-1.4026571988075476,"lat":46.47255779356661,"postcode":"85540"},{"name":"Le Gué-de-Velluire","insee":"85105","lon":-0.9055245973716465,"lat":46.36757742384742,"postcode":"85770"},{"name":"Les Landes-Genusson","insee":"85119","lon":-1.1291724530409983,"lat":46.96629423031859,"postcode":"85130"},{"name":"Liez","insee":"85123","lon":-0.7054096753255131,"lat":46.37003648414476,"postcode":"85420"},{"name":"Mortagne-sur-Sèvre","insee":"85151","lon":-0.9457900646318621,"lat":46.99112406329211,"postcode":"85290"},{"name":"Thiré","insee":"85290","lon":-1.0077422378634184,"lat":46.54381487744888,"postcode":"85210"},{"name":"Antran","insee":"86007","lon":0.5305327417841833,"lat":46.87686078349348,"postcode":"86100"},{"name":"Chabournay","insee":"86048","lon":0.26920530019466093,"lat":46.71972794249811,"postcode":"86380"},{"name":"La Roche-Rigault","insee":"86079","lon":0.17107658815952434,"lat":46.97010968731593,"postcode":"86200"},{"name":"Croutelle","insee":"86088","lon":0.2936457431968642,"lat":46.5425912035894,"postcode":"86240"},{"name":"Pouant","insee":"86197","lon":0.27836230134231343,"lat":47.01942846117156,"postcode":"86200"},{"name":"Saint-Sauvant","insee":"86244","lon":0.07799308608782893,"lat":46.355729309613174,"postcode":"86600"},{"name":"Ambazac","insee":"87002","lon":1.3994722512424218,"lat":45.9534463732475,"postcode":"87240"},{"name":"Bonnac-la-Côte","insee":"87020","lon":1.2926626079607364,"lat":45.94725549329936,"postcode":"87270"},{"name":"Val-d'Oire-et-Gartempe","insee":"87028","lon":0.9035175883782489,"lat":46.230124305644125,"postcode":"87320"},{"name":"Champsac","insee":"87036","lon":0.9626836905250853,"lat":45.70429719962159,"postcode":"87230"},{"name":"Coussac-Bonneval","insee":"87049","lon":1.3239881234199622,"lat":45.51690337446126,"postcode":"87500"},{"name":"Dinsac","insee":"87056","lon":1.1105970229301914,"lat":46.24072946707062,"postcode":"87210"},{"name":"Dournazac","insee":"87060","lon":0.9185127426826029,"lat":45.629514563881976,"postcode":"87230"},{"name":"Ladignac-le-Long","insee":"87082","lon":1.10703390276921,"lat":45.588693801492674,"postcode":"87500"},{"name":"Tersannes","insee":"87195","lon":1.1279057159389956,"lat":46.29081370987624,"postcode":"87360"},{"name":"Thouron","insee":"87197","lon":1.2204735237958,"lat":45.997950335413805,"postcode":"87140"},{"name":"Belmont-sur-Vair","insee":"88051","lon":5.915469006950345,"lat":48.25934112356181,"postcode":"88800"},{"name":"Crainvilliers","insee":"88119","lon":5.835135876754941,"lat":48.147973076901,"postcode":"88140"},{"name":"Dompaire","insee":"88151","lon":6.208100004379398,"lat":48.226134332835294,"postcode":"88270"},{"name":"Les Forges","insee":"88178","lon":6.394102054816507,"lat":48.17365573622811,"postcode":"88390"},{"name":"Igney","insee":"88247","lon":6.3892477711949525,"lat":48.2761241817299,"postcode":"88150"},{"name":"Landaville","insee":"88259","lon":5.747114568865274,"lat":48.282742334025876,"postcode":"88300"},{"name":"Moyenmoutier","insee":"88319","lon":6.9173391410102045,"lat":48.384626176420106,"postcode":"88420"},{"name":"Ollainville","insee":"88336","lon":5.803878118107701,"lat":48.270020548378874,"postcode":"88170"},{"name":"Punerot","insee":"88363","lon":5.815025648576532,"lat":48.477193102887924,"postcode":"88630"},{"name":"Rehaincourt","insee":"88379","lon":6.470019832794538,"lat":48.361725294281435,"postcode":"88330"},{"name":"Senaide","insee":"88450","lon":5.804651428307704,"lat":47.96916307948656,"postcode":"88320"},{"name":"Les Vallois","insee":"88491","lon":6.121626370585374,"lat":48.15625917432804,"postcode":"88260"},{"name":"Villouxel","insee":"88511","lon":5.5790087790603415,"lat":48.347321853471854,"postcode":"88350"},{"name":"Viviers-le-Gras","insee":"88517","lon":5.937450546918114,"lat":48.120679116739105,"postcode":"88260"},{"name":"Wisembach","insee":"88526","lon":7.118695392318273,"lat":48.261266572453906,"postcode":"88520"},{"name":"Blannay","insee":"89044","lon":3.7621496640247507,"lat":47.53393933318627,"postcode":"89200"},{"name":"Deux Rivières","insee":"89130","lon":3.711686109453378,"lat":47.68298954133247,"postcode":"89460"},{"name":"Étivey","insee":"89161","lon":4.146712061326797,"lat":47.67181235507628,"postcode":"89310"},{"name":"Grimault","insee":"89194","lon":3.976847772859343,"lat":47.66081754295949,"postcode":"89310"},{"name":"Merry-Sec","insee":"89252","lon":3.4855717855692334,"lat":47.65854329174626,"postcode":"89560"},{"name":"Parly","insee":"89286","lon":3.3501166311680475,"lat":47.75892279830196,"postcode":"89240"},{"name":"Perrigny","insee":"89295","lon":3.528790147051824,"lat":47.826189507578576,"postcode":"89000"},{"name":"Saint-Martin-sur-Armançon","insee":"89355","lon":4.067727664015332,"lat":47.87732235603561,"postcode":"89700"},{"name":"Saint-Maurice-Thizouaille","insee":"89361","lon":3.362187550203574,"lat":47.83357753555413,"postcode":"89110"},{"name":"Sambourg","insee":"89374","lon":4.009995739389798,"lat":47.774062916419275,"postcode":"89160"},{"name":"Serbonnes","insee":"89390","lon":3.20884838395094,"lat":48.330318538904,"postcode":"89140"},{"name":"Sommecaise","insee":"89397","lon":3.2225600110510197,"lat":47.838711025565004,"postcode":"89110"},{"name":"Vault-de-Lugny","insee":"89433","lon":3.841574625669647,"lat":47.502925789003605,"postcode":"89200"},{"name":"Villechétive","insee":"89451","lon":3.529790835464569,"lat":48.09557251796946,"postcode":"89320"},{"name":"Bourg-sous-Châtelet","insee":"90016","lon":6.94836157788408,"lat":47.70570100950729,"postcode":"90110"},{"name":"Chaux","insee":"90023","lon":6.838348164842188,"lat":47.71247141469292,"postcode":"90330"},{"name":"Chavannes-les-Grands","insee":"90025","lon":7.049507559711325,"lat":47.590263493182775,"postcode":"90100"},{"name":"Danjoutin","insee":"90032","lon":6.867245497022959,"lat":47.61803964112516,"postcode":"90400"},{"name":"Réchésy","insee":"90081","lon":7.1165097302901765,"lat":47.51589629287357,"postcode":"90370"},{"name":"Bois-Herpin","insee":"91075","lon":2.2437166486570597,"lat":48.3721872224095,"postcode":"91150"},{"name":"Étampes","insee":"91223","lon":2.137890616803026,"lat":48.421880003215094,"postcode":"91150"},{"name":"La Ferté-Alais","insee":"91232","lon":2.368102967815384,"lat":48.48118917986303,"postcode":"91590"},{"name":"Gironville-sur-Essonne","insee":"91273","lon":2.346437179349546,"lat":48.36704541293645,"postcode":"91720"},{"name":"Gometz-la-Ville","insee":"91274","lon":2.109762401163967,"lat":48.67283234527494,"postcode":"91400"},{"name":"Grigny","insee":"91286","lon":2.387476304653416,"lat":48.65705193519651,"postcode":"91350"},{"name":"Le Mérévillois","insee":"91390","lon":2.0837550909906404,"lat":48.316156604098474,"postcode":"91660"},{"name":"Morangis","insee":"91432","lon":2.337357053393798,"lat":48.702823494332776,"postcode":"91420"},{"name":"Nainville-les-Roches","insee":"91441","lon":2.4955922825407897,"lat":48.50499781297013,"postcode":"91750"},{"name":"Saclay","insee":"91534","lon":2.166032937845783,"lat":48.73592391729536,"postcode":"91400"},{"name":"Chuelles","insee":"45097","lon":2.968602895919487,"lat":47.99696089250134,"postcode":"45220"},{"name":"Corbeilles","insee":"45103","lon":2.559056039825745,"lat":48.074549166543044,"postcode":"45490"},{"name":"Desmonts","insee":"45124","lon":2.498845521341854,"lat":48.227311426906525,"postcode":"45390"},{"name":"Erceville","insee":"45135","lon":2.0270532628536384,"lat":48.24543253785287,"postcode":"45480"},{"name":"Gidy","insee":"45154","lon":1.8354960527824367,"lat":47.99141631751478,"postcode":"45520"},{"name":"Huisseau-sur-Mauves","insee":"45167","lon":1.7002304692473185,"lat":47.893480027646646,"postcode":"45130"},{"name":"Lion-en-Sullias","insee":"45184","lon":2.478703902787961,"lat":47.723614635292336,"postcode":"45600"},{"name":"Mignerette","insee":"45207","lon":2.604860149802123,"lat":48.06060117676989,"postcode":"45490"},{"name":"Boissières","insee":"46032","lon":1.4082516928114424,"lat":44.54791397007159,"postcode":"46150"},{"name":"Castelfranc","insee":"46062","lon":1.223744198148725,"lat":44.50445832476513,"postcode":"46140"},{"name":"Concots","insee":"46073","lon":1.6434950559659935,"lat":44.39681242929135,"postcode":"46260"},{"name":"Couzou","insee":"46078","lon":1.6331572466439366,"lat":44.76993294337252,"postcode":"46500"},{"name":"Douelle","insee":"46088","lon":1.3554472540792197,"lat":44.47072290164655,"postcode":"46140"},{"name":"Gagnac-sur-Cère","insee":"46117","lon":1.8844673240513503,"lat":44.939108600737825,"postcode":"46130"},{"name":"Gindou","insee":"46120","lon":1.2638961330720664,"lat":44.627338219613776,"postcode":"46250"},{"name":"Issendolus","insee":"46132","lon":1.7796459746603799,"lat":44.73866925368712,"postcode":"46500"},{"name":"Lauzès","insee":"46162","lon":1.5778867108079007,"lat":44.563221420145624,"postcode":"46360"},{"name":"Lissac-et-Mouret","insee":"46175","lon":1.9716952908066665,"lat":44.62342220494643,"postcode":"46100"},{"name":"Masclat","insee":"46186","lon":1.3805177625386016,"lat":44.83265786014775,"postcode":"46350"},{"name":"Saint-Cirq-Souillaguet","insee":"46258","lon":1.441422222017958,"lat":44.70550245588562,"postcode":"46300"},{"name":"Saint-Médard-Nicourby","insee":"46282","lon":2.0110662997050643,"lat":44.76582757034968,"postcode":"46210"},{"name":"Saint-Michel-de-Bannières","insee":"46283","lon":1.6836455488205566,"lat":44.97591655124814,"postcode":"46110"},{"name":"Sousceyrac-en-Quercy","insee":"46311","lon":2.0317827510067,"lat":44.90543926082608,"postcode":"46190"},{"name":"Touzac","insee":"46321","lon":1.059610639721381,"lat":44.49684853566083,"postcode":"46700"},{"name":"Vayrac","insee":"46330","lon":1.6928449414352225,"lat":44.94527222406332,"postcode":"46110"},{"name":"Beaugas","insee":"47023","lon":0.623612633153368,"lat":44.51153502004906,"postcode":"47290"},{"name":"Blanquefort-sur-Briolance","insee":"47029","lon":0.9606618010910354,"lat":44.60935113724071,"postcode":"47500"},{"name":"Cazideroque","insee":"47064","lon":0.9303581991466467,"lat":44.404104114606746,"postcode":"47370"},{"name":"Damazan","insee":"47078","lon":0.27533350101702136,"lat":44.28918549494074,"postcode":"47160"},{"name":"Laperche","insee":"47136","lon":0.4150355884627853,"lat":44.5460271950951,"postcode":"47800"},{"name":"Leyritz-Moncassin","insee":"47148","lon":0.17642351097120954,"lat":44.33335706004724,"postcode":"47700"},{"name":"Montignac-de-Lauzun","insee":"47188","lon":0.4724222139866207,"lat":44.56933947414052,"postcode":"47800"},{"name":"Poudenas","insee":"47211","lon":0.20074777277123448,"lat":44.041230961056264,"postcode":"47170"},{"name":"Romestaing","insee":"47224","lon":0.01856050641319315,"lat":44.417558776323496,"postcode":"47250"},{"name":"Saint-Colomb-de-Lauzun","insee":"47235","lon":0.47897654444124177,"lat":44.60835049980504,"postcode":"47410"},{"name":"Sainte-Colombe-en-Bruilhois","insee":"47238","lon":0.516032199208319,"lat":44.18702598597545,"postcode":"47310"},{"name":"Saint-Étienne-de-Villeréal","insee":"47240","lon":0.7624076425357809,"lat":44.61271964466721,"postcode":"47210"},{"name":"Soumensac","insee":"47303","lon":0.3368006018390084,"lat":44.689023372576145,"postcode":"47120"},{"name":"Le Buisson","insee":"48032","lon":3.2231974303986393,"lat":44.62892063094514,"postcode":"48100"},{"name":"La Canourgue","insee":"48034","lon":3.2572055267355733,"lat":44.41904057074165,"postcode":"48500"},{"name":"Chauchailles","insee":"48044","lon":3.0740291328362592,"lat":44.79289792852644,"postcode":"48310"},{"name":"Gabrias","insee":"48068","lon":3.3792513808626397,"lat":44.55352181268735,"postcode":"48100"},{"name":"Sainte-Eulalie","insee":"48149","lon":3.4847156454327046,"lat":44.78479677677114,"postcode":"48120"},{"name":"Saint-Frézal-d'Albuges","insee":"48151","lon":3.766965263387315,"lat":44.58072253540364,"postcode":"48170"},{"name":"Les Salelles","insee":"48185","lon":3.274193152355729,"lat":44.48490512368629,"postcode":"48230"},{"name":"Blou","insee":"49030","lon":-0.05354172328011691,"lat":47.36313406621007,"postcode":"49160"},{"name":"Saint-Christophe-du-Bois","insee":"49269","lon":-0.9653925663586185,"lat":47.02891663158769,"postcode":"49280"},{"name":"Yzernay","insee":"49381","lon":-0.6969655780388063,"lat":47.034587726056486,"postcode":"49360"},{"name":"Biéville","insee":"50054","lon":-0.8887819789326238,"lat":49.073859927219814,"postcode":"50160"},{"name":"Éroudeville","insee":"50175","lon":-1.396477631561583,"lat":49.47451252434078,"postcode":"50310"},{"name":"Hiesville","insee":"50246","lon":-1.259556783520035,"lat":49.37179744623155,"postcode":"50480"},{"name":"La Lucerne-d'Outremer","insee":"50281","lon":-1.4101298889375213,"lat":48.788497259012324,"postcode":"50320"},{"name":"Maupertuis","insee":"50295","lon":-1.1995108998315636,"lat":48.955134866100906,"postcode":"50410"},{"name":"Montfarville","insee":"50342","lon":-1.2632016340577723,"lat":49.65592373286723,"postcode":"50760"},{"name":"Neuville-au-Plain","insee":"50373","lon":-1.3348582420562694,"lat":49.42417947439632,"postcode":"50480"},{"name":"Percy-en-Normandie","insee":"50393","lon":-1.193997974120904,"lat":48.91408410770256,"postcode":"50410"},{"name":"Ponts","insee":"50411","lon":-1.3344534200509004,"lat":48.71192415774999,"postcode":"50300"},{"name":"Saint-Georges-de-Livoye","insee":"50472","lon":-1.2228185129511964,"lat":48.73755519733582,"postcode":"50370"},{"name":"Saint-Jean-de-la-Rivière","insee":"50490","lon":-1.7406051406746879,"lat":49.36881153631748,"postcode":"50270"},{"name":"Saint-Martin-de-Bonfossé","insee":"50512","lon":-1.173578729863784,"lat":49.0417145965743,"postcode":"50750"},{"name":"Terre-et-Marais","insee":"50564","lon":-1.301312782663593,"lat":49.248922039743604,"postcode":"50500"},{"name":"Savigny-le-Vieux","insee":"50570","lon":-1.0254859065964674,"lat":48.519134526879775,"postcode":"50640"},{"name":"Servon","insee":"50574","lon":-1.4110719425632574,"lat":48.60279059449423,"postcode":"50170"},{"name":"Tréauville","insee":"50604","lon":-1.8241467423735533,"lat":49.53775321048541,"postcode":"50340"},{"name":"Tribehou","insee":"50606","lon":-1.2455313889370399,"lat":49.20940947171503,"postcode":"50620"},{"name":"Valcanville","insee":"50613","lon":-1.3202554081493034,"lat":49.64819609287955,"postcode":"50760"},{"name":"Ablancourt","insee":"51001","lon":4.530058382079996,"lat":48.810539158973334,"postcode":"51240"},{"name":"Baudement","insee":"51041","lon":3.767982419304355,"lat":48.57885300151768,"postcode":"51260"},{"name":"Bergères-sous-Montmirail","insee":"51050","lon":3.597050896899906,"lat":48.84526180868677,"postcode":"51210"},{"name":"Blaise-sous-Arzillières","insee":"51066","lon":4.58591172484096,"lat":48.67103366309265,"postcode":"51300"},{"name":"Bréban","insee":"51084","lon":4.391791079793547,"lat":48.57958719640961,"postcode":"51320"},{"name":"Brimont","insee":"51088","lon":4.037361884419686,"lat":49.338660325838916,"postcode":"51220"},{"name":"Bussy-Lettrée","insee":"51099","lon":4.250699268642172,"lat":48.80275347202465,"postcode":"51320"},{"name":"Cernay-en-Dormois","insee":"51104","lon":4.769740208301695,"lat":49.224396185315086,"postcode":"51800"},{"name":"Chaumuzy","insee":"51140","lon":3.8679505896967195,"lat":49.159705921138794,"postcode":"51170"},{"name":"Corrobert","insee":"51175","lon":3.6082703948832733,"lat":48.923506394358384,"postcode":"51210"},{"name":"Courcelles-Sapicourt","insee":"51181","lon":3.8412166079360177,"lat":49.26689051135183,"postcode":"51140"},{"name":"Courdemanges","insee":"51184","lon":4.508370154541323,"lat":48.67956889929307,"postcode":"51300"},{"name":"Heiltz-le-Maurupt","insee":"51289","lon":4.829500799258182,"lat":48.79886318966699,"postcode":"51340"},{"name":"Ormes","insee":"51418","lon":3.9582676670905452,"lat":49.23856695948632,"postcode":"51370"},{"name":"Reims-la-Brûlée","insee":"51455","lon":4.669106051095686,"lat":48.72160122336669,"postcode":"51300"},{"name":"Rosnay","insee":"51468","lon":3.857534444899335,"lat":49.25695641377492,"postcode":"51390"},{"name":"Sainte-Gemme","insee":"51480","lon":3.6638810789223926,"lat":49.14466689914572,"postcode":"51700"},{"name":"Saint-Gibrien","insee":"51483","lon":4.295943131317397,"lat":48.97471558071703,"postcode":"51510"},{"name":"Sainte-Marie-à-Py","insee":"51501","lon":4.50793198956985,"lat":49.23950094789352,"postcode":"51600"},{"name":"Saron-sur-Aube","insee":"51524","lon":3.7294843848092105,"lat":48.58231457582562,"postcode":"51260"},{"name":"Somme-Suippe","insee":"51546","lon":4.588205210548459,"lat":49.1189840667509,"postcode":"51600"},{"name":"Thibie","insee":"51566","lon":4.210538765256465,"lat":48.91808553390048,"postcode":"51510"},{"name":"Vrigny","insee":"51657","lon":3.9172168055135272,"lat":49.237934947061106,"postcode":"51390"},{"name":"Auberive","insee":"52023","lon":5.107206433300153,"lat":47.77894651835909,"postcode":"52160"},{"name":"Bourdons-sur-Rognon","insee":"52061","lon":5.339215775232355,"lat":48.1760003000325,"postcode":"52700"},{"name":"Chanoy","insee":"52106","lon":5.284581297211322,"lat":47.92088704283088,"postcode":"52260"},{"name":"Cirey-sur-Blaise","insee":"52129","lon":4.935640642907732,"lat":48.33318876853497,"postcode":"52110"},{"name":"Consigny","insee":"52142","lon":5.4114092865843215,"lat":48.16524448961932,"postcode":"52700"},{"name":"Fontaines-sur-Marne","insee":"52203","lon":5.115583056862184,"lat":48.55794762855392,"postcode":"52170"},{"name":"Lamancine","insee":"52260","lon":5.115630147094848,"lat":48.21114375850868,"postcode":"52310"},{"name":"Bayard-sur-Marne","insee":"52265","lon":5.06831525419549,"lat":48.54993379786318,"postcode":"52170"},{"name":"Villebon-sur-Yvette","insee":"91661","lon":2.235337822967363,"lat":48.69592796743469,"postcode":"91140"},{"name":"Villejust","insee":"91666","lon":2.223003933325917,"lat":48.67802302318671,"postcode":"91140"},{"name":"Châtillon","insee":"92020","lon":2.2883424959551517,"lat":48.80363283039784,"postcode":"92320"},{"name":"Noisy-le-Grand","insee":"93051","lon":2.564610201889153,"lat":48.83624671047701,"postcode":"93160"},{"name":"Le Kremlin-Bicêtre","insee":"94043","lon":2.355871917818623,"lat":48.808787969172876,"postcode":"94270"},{"name":"Villiers-sur-Marne","insee":"94079","lon":2.545283249101587,"lat":48.82614891731638,"postcode":"94350"},{"name":"Bray-et-Lû","insee":"95101","lon":1.6653089253059776,"lat":49.14239626262269,"postcode":"95710"},{"name":"Deuil-la-Barre","insee":"95197","lon":2.326433196747223,"lat":48.97171604206949,"postcode":"95170"},{"name":"Eaubonne","insee":"95203","lon":2.2774809751990044,"lat":48.99106719809968,"postcode":"95600"},{"name":"Louvres","insee":"95351","lon":2.5039638324184192,"lat":49.04220357221236,"postcode":"95380"},{"name":"Moisselles","insee":"95409","lon":2.337389748919287,"lat":49.04606273025634,"postcode":"95570"},{"name":"Montsoult","insee":"95430","lon":2.3048786359557667,"lat":49.07131308180941,"postcode":"95560"},{"name":"Sagy","insee":"95535","lon":1.9684770988660376,"lat":49.052440370627345,"postcode":"95450"},{"name":"Sarcelles","insee":"95585","lon":2.38111727561996,"lat":48.990236259958124,"postcode":"95200"},{"name":"Seugy","insee":"95594","lon":2.3939386058990295,"lat":49.12274820518556,"postcode":"95270"},{"name":"Vémars","insee":"95641","lon":2.567173272343027,"lat":49.06293938448027,"postcode":"95470"},{"name":"Wy-dit-Joli-Village","insee":"95690","lon":1.824388033882766,"lat":49.09584716084163,"postcode":"95420"},{"name":"Vieux-Fort","insee":"97133","lon":-61.69460842274951,"lat":15.959653143707015,"postcode":"97141"},{"name":"Vieux-Habitants","insee":"97134","lon":-61.726189910792755,"lat":16.086823673017502,"postcode":"97119"},{"name":"Avocourt","insee":"55023","lon":5.142425218033321,"lat":49.203015513911744,"postcode":"55270"},{"name":"Beauclair","insee":"55036","lon":5.118499637239148,"lat":49.452696375031785,"postcode":"55700"},{"name":"Billy-sous-Mangiennes","insee":"55053","lon":5.562324555473104,"lat":49.323386997981956,"postcode":"55230"},{"name":"Bréhéville","insee":"55076","lon":5.3333926201252515,"lat":49.38412382133687,"postcode":"55150"},{"name":"Chassey-Beaupré","insee":"55104","lon":5.438297739135265,"lat":48.446480539812455,"postcode":"55130"},{"name":"Couvertpuis","insee":"55133","lon":5.306694819087467,"lat":48.58154380688031,"postcode":"55290"},{"name":"Demange-Baudignécourt","insee":"55150","lon":5.469464897037846,"lat":48.58606868668361,"postcode":"55130"},{"name":"Fromezey","insee":"55201","lon":5.581920163543423,"lat":49.21185813386076,"postcode":"55400"},{"name":"Haironville","insee":"55224","lon":5.090526660182666,"lat":48.68794587614446,"postcode":"55000"},{"name":"Hannonville-sous-les-Côtes","insee":"55228","lon":5.653406875426288,"lat":49.032776085512346,"postcode":"55210"},{"name":"Lemmes","insee":"55286","lon":5.294336962932266,"lat":49.06893431639024,"postcode":"55220"},{"name":"Levoncourt","insee":"55289","lon":5.3460800731521285,"lat":48.827513893709025,"postcode":"55260"},{"name":"Lisle-en-Barrois","insee":"55295","lon":5.0830736553148155,"lat":48.92039257961156,"postcode":"55250"},{"name":"Louppy-le-Château","insee":"55304","lon":5.078850954873154,"lat":48.866739723195224,"postcode":"55800"},{"name":"Menaucourt","insee":"55332","lon":5.362040639957307,"lat":48.656201037432254,"postcode":"55500"},{"name":"Muzeray","insee":"55367","lon":5.622589627534234,"lat":49.338800204635646,"postcode":"55230"},{"name":"Naix-aux-Forges","insee":"55370","lon":5.37180275720057,"lat":48.633845421047916,"postcode":"55500"},{"name":"Nançois-le-Grand","insee":"55371","lon":5.392653512367448,"lat":48.71381207050786,"postcode":"55500"},{"name":"Nantillois","insee":"55375","lon":5.131487379411308,"lat":49.29993176434369,"postcode":"55270"},{"name":"Resson","insee":"55426","lon":5.231295820001024,"lat":48.77157363459879,"postcode":"55000"},{"name":"Thonne-la-Long","insee":"55508","lon":5.425884553965842,"lat":49.56625153663591,"postcode":"55600"},{"name":"Velaines","insee":"55543","lon":5.296967887704492,"lat":48.69754873363975,"postcode":"55500"},{"name":"Villers-le-Sec","insee":"55562","lon":5.299687817144803,"lat":48.624346688894555,"postcode":"55500"},{"name":"Wiseppe","insee":"55582","lon":5.165949956071545,"lat":49.460828567354135,"postcode":"55700"},{"name":"Auray","insee":"56007","lon":-2.9904840924688822,"lat":47.66748059782314,"postcode":"56400"},{"name":"Férel","insee":"56058","lon":-2.339652977867136,"lat":47.48718108731067,"postcode":"56130"},{"name":"Merlevenez","insee":"56130","lon":-3.2442030605291787,"lat":47.732696356434026,"postcode":"56700"},{"name":"Mohon","insee":"56134","lon":-2.494915221443411,"lat":48.06324958298934,"postcode":"56490"},{"name":"Noyal-Pontivy","insee":"56151","lon":-2.8911534936757968,"lat":48.06146236765619,"postcode":"56920"},{"name":"Ploërdut","insee":"56163","lon":-3.288197093136842,"lat":48.092624492696025,"postcode":"56160"},{"name":"Riantec","insee":"56193","lon":-3.3029661827865073,"lat":47.71852058711881,"postcode":"56670"},{"name":"Saint-Jean-la-Poterie","insee":"56223","lon":-2.1228009675448805,"lat":47.64545294379697,"postcode":"56350"},{"name":"Altrippe","insee":"57014","lon":6.815984811773812,"lat":49.02810244522936,"postcode":"57660"},{"name":"Amnéville","insee":"57019","lon":6.101163595703042,"lat":49.24080925094097,"postcode":"57360"},{"name":"Attilloncourt","insee":"57036","lon":6.385883634767074,"lat":48.797580052227424,"postcode":"57170"},{"name":"Audun-le-Tiche","insee":"57038","lon":5.9578524336501815,"lat":49.45846598331472,"postcode":"57390"},{"name":"Aulnois-sur-Seille","insee":"57040","lon":6.328969881933064,"lat":48.86164784090649,"postcode":"57590"},{"name":"Bermering","insee":"57065","lon":6.712279535540324,"lat":48.93327517910628,"postcode":"57340"},{"name":"Bréhain","insee":"57107","lon":6.545279481846523,"lat":48.90810897253171,"postcode":"57340"},{"name":"Chenois","insee":"57138","lon":6.490156049954159,"lat":48.95805752006323,"postcode":"57580"},{"name":"Creutzwald","insee":"57160","lon":6.681254603019022,"lat":49.20926787465017,"postcode":"57150"},{"name":"Cutting","insee":"57161","lon":6.8360475194203225,"lat":48.84506739643162,"postcode":"57260"},{"name":"Dabo","insee":"57163","lon":7.239913957940017,"lat":48.64224219912093,"postcode":"57850"},{"name":"Grémecey","insee":"57257","lon":6.414013299853505,"lat":48.81046124929869,"postcode":"57170"},{"name":"Grundviller","insee":"57263","lon":6.983298277752094,"lat":49.0488587657411,"postcode":"57510"},{"name":"Hattigny","insee":"57302","lon":6.961027378835735,"lat":48.62770613513128,"postcode":"57790"},{"name":"Hérange","insee":"57317","lon":7.172581200964624,"lat":48.7769524097104,"postcode":"57635"},{"name":"Insviller","insee":"57347","lon":6.909356827177593,"lat":48.89026270792731,"postcode":"57670"},{"name":"Jouy-aux-Arches","insee":"57350","lon":6.085430230157313,"lat":49.06343568063206,"postcode":"57130"},{"name":"Laning","insee":"57384","lon":6.771477878073603,"lat":49.02892723014418,"postcode":"57660"},{"name":"Loutzviller","insee":"57421","lon":7.3849006959874295,"lat":49.14419249555938,"postcode":"57720"},{"name":"Lucy","insee":"57424","lon":6.4776254230222685,"lat":48.940637107831904,"postcode":"57590"},{"name":"Mey","insee":"57467","lon":6.240224909937451,"lat":49.13672830706768,"postcode":"57070"},{"name":"Moncourt","insee":"57473","lon":6.6408015800136395,"lat":48.71737149948436,"postcode":"57810"},{"name":"Nousseviller-Saint-Nabor","insee":"57514","lon":6.970970443161929,"lat":49.12861052136876,"postcode":"57990"},{"name":"Pettoncourt","insee":"57538","lon":6.410113448746579,"lat":48.78798612229578,"postcode":"57170"},{"name":"Rezonville-Vionville","insee":"57578","lon":5.9683799244498985,"lat":49.09025368645036,"postcode":"57130"},{"name":"Richeval","insee":"57583","lon":6.912213463783602,"lat":48.63353210932414,"postcode":"57830"},{"name":"Spicheren","insee":"57659","lon":6.971383139247604,"lat":49.19516344204222,"postcode":"57350"},{"name":"Turquestein-Blancrupt","insee":"57682","lon":7.087171860300183,"lat":48.55923784876817,"postcode":"57560"},{"name":"Vahl-Ebersing","insee":"57684","lon":6.747515165530338,"lat":49.05311086367617,"postcode":"57660"},{"name":"Volmerange-lès-Boulay","insee":"57730","lon":6.448870509547282,"lat":49.17001019572585,"postcode":"57220"},{"name":"Champallement","insee":"58052","lon":3.481791941241377,"lat":47.22887497831815,"postcode":"58420"},{"name":"Dommartin","insee":"58099","lon":3.845763826419638,"lat":47.07158007864107,"postcode":"58120"},{"name":"La Fermeté","insee":"58112","lon":3.3286774002724546,"lat":46.95634867175198,"postcode":"58160"},{"name":"Germenay","insee":"58123","lon":3.60040074413787,"lat":47.28896368314537,"postcode":"58800"},{"name":"Gimouille","insee":"58126","lon":3.09864144323791,"lat":46.941081713586,"postcode":"58470"},{"name":"Gouloux","insee":"58129","lon":4.083543427747978,"lat":47.2306171836336,"postcode":"58230"},{"name":"Larochemillay","insee":"58140","lon":3.985131789800385,"lat":46.8903298539537,"postcode":"58370"},{"name":"Luthenay-Uxeloup","insee":"58148","lon":3.268553853312913,"lat":46.85351808296702,"postcode":"58240"},{"name":"La Machine","insee":"58151","lon":3.462344750788276,"lat":46.891575031801324,"postcode":"58260"},{"name":"Magny-Lormes","insee":"58153","lon":3.7478401547116222,"lat":47.291284665293674,"postcode":"58800"},{"name":"La Marche","insee":"58155","lon":3.0397677526268323,"lat":47.148606822878364,"postcode":"58400"},{"name":"Oulon","insee":"58203","lon":3.4009770492830085,"lat":47.1980201102056,"postcode":"58700"},{"name":"Saint-Aubin-des-Chaumes","insee":"58230","lon":3.757292778379202,"lat":47.39025401110266,"postcode":"58190"},{"name":"Taconnay","insee":"58283","lon":3.4897295839838813,"lat":47.31246376968518,"postcode":"58420"},{"name":"Assevent","insee":"59021","lon":4.0197956917884445,"lat":50.28827170875214,"postcode":"59600"},{"name":"Auberchicourt","insee":"59024","lon":3.227860599673885,"lat":50.33005603409371,"postcode":"59165"},{"name":"Berlaimont","insee":"59068","lon":3.7934932895542737,"lat":50.20593445683929,"postcode":"59145"},{"name":"Berthen","insee":"59073","lon":2.6880195457982423,"lat":50.777565373357405,"postcode":"59270"},{"name":"Boussois","insee":"59104","lon":4.047784037584407,"lat":50.29501471842906,"postcode":"59168"},{"name":"Buysscheure","insee":"59119","lon":2.3362492806621233,"lat":50.80658169760076,"postcode":"59285"},{"name":"Craywick","insee":"59159","lon":2.221752171928376,"lat":50.97260863828222,"postcode":"59279"},{"name":"Erquinghem-Lys","insee":"59202","lon":2.840536079418362,"lat":50.67034356028671,"postcode":"59193"},{"name":"Erre","insee":"59203","lon":3.316110298198763,"lat":50.37004864580483,"postcode":"59171"},{"name":"Haverskerque","insee":"59293","lon":2.5470849858186284,"lat":50.640302882949484,"postcode":"59660"},{"name":"Hornaing","insee":"59314","lon":3.335989555632356,"lat":50.36916398456218,"postcode":"59171"},{"name":"Lecelles","insee":"59335","lon":3.399201950581021,"lat":50.47494121438001,"postcode":"59226"},{"name":"Ligny-en-Cambrésis","insee":"59349","lon":3.3779664532818487,"lat":50.10268922437623,"postcode":"59191"},{"name":"Montrécourt","insee":"59415","lon":3.4465201002579144,"lat":50.226670975170265,"postcode":"59227"},{"name":"Neuf-Mesnil","insee":"59424","lon":3.908332902269153,"lat":50.26561379323852,"postcode":"59330"},{"name":"Obies","insee":"59441","lon":3.77660271517858,"lat":50.26884042729421,"postcode":"59570"},{"name":"Prémesques","insee":"59470","lon":2.9486356284205164,"lat":50.66055531217708,"postcode":"59840"},{"name":"Proville","insee":"59476","lon":3.204293373796144,"lat":50.15612146308619,"postcode":"59267"},{"name":"Radinghem-en-Weppes","insee":"59487","lon":2.8979687631333775,"lat":50.62848631672957,"postcode":"59320"},{"name":"Saulzoir","insee":"59558","lon":3.4394434655603914,"lat":50.24281682636663,"postcode":"59227"},{"name":"La Sentinelle","insee":"59564","lon":3.475453392993021,"lat":50.34865222238764,"postcode":"59174"},{"name":"Steenwerck","insee":"59581","lon":2.7694844432510584,"lat":50.68686947875647,"postcode":"59181"},{"name":"Wattignies-la-Victoire","insee":"59649","lon":4.002638131742401,"lat":50.20042733551915,"postcode":"59680"},{"name":"Zuydcoote","insee":"59668","lon":2.486569702238561,"lat":51.06373413023431,"postcode":"59123"},{"name":"Antheuil-Portes","insee":"60019","lon":2.73357406550818,"lat":49.50024719419134,"postcode":"60162"},{"name":"Boury-en-Vexin","insee":"60095","lon":1.7366286498584018,"lat":49.24228215372366,"postcode":"60240"},{"name":"Broyes","insee":"60111","lon":2.4533102967864027,"lat":49.62800764197672,"postcode":"60120"},{"name":"Doméliers","insee":"60199","lon":2.16467381006682,"lat":49.628556973983464,"postcode":"60360"},{"name":"Fresnoy-en-Thelle","insee":"60259","lon":2.2625546283988367,"lat":49.199141520685885,"postcode":"60530"},{"name":"Froissy","insee":"60265","lon":2.214514797670576,"lat":49.56561088254935,"postcode":"60480"},{"name":"Méry-la-Bataille","insee":"60396","lon":2.630042335045643,"lat":49.54441264231281,"postcode":"60420"},{"name":"Mortefontaine-en-Thelle","insee":"60433","lon":2.188912585403119,"lat":49.26484632214438,"postcode":"60570"},{"name":"Noroy","insee":"60466","lon":2.5102169814985,"lat":49.442652315753485,"postcode":"60130"},{"name":"Saint-Quentin-des-Prés","insee":"60594","lon":1.7476819537517405,"lat":49.5204750887296,"postcode":"60380"},{"name":"Songeons","insee":"60623","lon":1.8524169016628553,"lat":49.56277987365001,"postcode":"60380"},{"name":"Tourly","insee":"60640","lon":1.9416889869723912,"lat":49.22023689993855,"postcode":"60240"},{"name":"Bizou","insee":"61046","lon":0.7502404207814829,"lat":48.49239582669612,"postcode":"61290"},{"name":"Boëcé","insee":"61048","lon":0.4542328988929316,"lat":48.51502142345451,"postcode":"61560"},{"name":"Brullemail","insee":"61064","lon":0.324846490202487,"lat":48.659505071819666,"postcode":"61390"},{"name":"Crouttes","insee":"61139","lon":0.13689431649212536,"lat":48.92199368508024,"postcode":"61120"},{"name":"La Fresnaie-Fayel","insee":"61178","lon":0.22701098036402284,"lat":48.83370139976793,"postcode":"61230"},{"name":"Landigou","insee":"61221","lon":-0.4781687114786768,"lat":48.74360464788791,"postcode":"61100"},{"name":"Médavy","insee":"61256","lon":0.07934090993236367,"lat":48.673281577416525,"postcode":"61570"},{"name":"Le Pin-la-Garenne","insee":"61329","lon":0.5450427516773599,"lat":48.444703351230416,"postcode":"61400"},{"name":"Saint-Cyr-la-Rosière","insee":"61379","lon":0.6424828816139726,"lat":48.320778039567855,"postcode":"61130"},{"name":"Saint-Denis-sur-Huisne","insee":"61381","lon":0.5313634518669287,"lat":48.47092708887602,"postcode":"61400"},{"name":"Saint-Hilaire-sur-Erre","insee":"61405","lon":0.7462354953368622,"lat":48.31197577240501,"postcode":"61340"},{"name":"Sainte-Marguerite-de-Carrouges","insee":"61419","lon":-0.15161540208318527,"lat":48.59344579729454,"postcode":"61320"},{"name":"Charencey","insee":"61429","lon":0.7700683767027218,"lat":48.64116287690799,"postcode":"61190"},{"name":"Saint-Nicolas-des-Bois","insee":"61433","lon":0.027214270467893188,"lat":48.50704567242883,"postcode":"61250"},{"name":"Saint-Ouen-le-Brisoult","insee":"61439","lon":-0.3511661786279205,"lat":48.50883657218253,"postcode":"61410"},{"name":"Bagnoles de l'Orne Normandie","insee":"61483","lon":-0.42072803250317276,"lat":48.56684607516276,"postcode":"61140"},{"name":"Auchy-lès-Hesdin","insee":"62050","lon":2.095512153789581,"lat":50.40885880761006,"postcode":"62770"},{"name":"Aumerval","insee":"62058","lon":2.4068132617320943,"lat":50.505062897109816,"postcode":"62550"},{"name":"Bapaume","insee":"62080","lon":2.856156092396391,"lat":50.1007506368312,"postcode":"62450"},{"name":"Boisjean","insee":"62150","lon":1.7810405729276872,"lat":50.40875394993523,"postcode":"62170"},{"name":"Bruay-la-Buissière","insee":"62178","lon":2.5522637212487354,"lat":50.48969656583833,"postcode":"62700"},{"name":"Colline-Beaumont","insee":"62231","lon":1.6741607649973171,"lat":50.34311288741912,"postcode":"62180"},{"name":"Conchil-le-Temple","insee":"62233","lon":1.6751086842225398,"lat":50.36777551853543,"postcode":"62180"},{"name":"Écourt-Saint-Quentin","insee":"62284","lon":3.0623535630980947,"lat":50.260381789221626,"postcode":"62860"},{"name":"Écoust-Saint-Mein","insee":"62285","lon":2.901890426491415,"lat":50.17419328598537,"postcode":"62128"},{"name":"Estrée-Cauchy","insee":"62314","lon":2.611708182247674,"lat":50.399412602237334,"postcode":"62690"},{"name":"Feuchy","insee":"62331","lon":2.848673913367519,"lat":50.28457545302962,"postcode":"62223"},{"name":"Frémicourt","insee":"62353","lon":2.903081868279569,"lat":50.11267264815665,"postcode":"62450"},{"name":"Fréthun","insee":"62360","lon":1.8158586604654825,"lat":50.9116513491903,"postcode":"62185"},{"name":"Hénin-Beaumont","insee":"62427","lon":2.959251342189415,"lat":50.40936941602178,"postcode":"62110"},{"name":"Héricourt","insee":"62433","lon":2.250092635727421,"lat":50.33813136178179,"postcode":"62130"},{"name":"Hesdin-l'Abbé","insee":"62448","lon":1.688043008344027,"lat":50.66958409153005,"postcode":"62360"},{"name":"Hézecques","insee":"62453","lon":2.1914454770634193,"lat":50.534037763458386,"postcode":"62310"},{"name":"Isques","insee":"62474","lon":1.6556532338207623,"lat":50.682062183432585,"postcode":"62360"},{"name":"Leulinghen-Bernes","insee":"62505","lon":1.7141134717384285,"lat":50.83671646174299,"postcode":"62250"},{"name":"Liettres","insee":"62509","lon":2.3399522374216515,"lat":50.59691953549618,"postcode":"62145"},{"name":"La Madelaine-sous-Montreuil","insee":"62535","lon":1.748472515502297,"lat":50.465927660924386,"postcode":"62170"},{"name":"Montenescourt","insee":"62586","lon":2.6287837740068714,"lat":50.292920488253905,"postcode":"62123"},{"name":"Nielles-lès-Calais","insee":"62615","lon":1.8333443109095102,"lat":50.907294099381694,"postcode":"62185"},{"name":"Œuf-en-Ternois","insee":"62633","lon":2.211309092779236,"lat":50.36304703492375,"postcode":"62130"},{"name":"Offin","insee":"62635","lon":1.9525822338216778,"lat":50.441663961165254,"postcode":"62990"},{"name":"Quernes","insee":"62676","lon":2.367743060683958,"lat":50.60279718872337,"postcode":"62120"},{"name":"Quœux-Haut-Maînil","insee":"62683","lon":2.10482638723932,"lat":50.30107307243069,"postcode":"62390"},{"name":"Rebergues","insee":"62692","lon":1.953502287656804,"lat":50.75377984226733,"postcode":"62850"},{"name":"Rebreuve-Ranchicourt","insee":"62693","lon":2.5486583373516782,"lat":50.431860562383996,"postcode":"62150"},{"name":"Rombly","insee":"62720","lon":2.3905487283541236,"lat":50.59489742122331,"postcode":"62120"},{"name":"Ruisseauville","insee":"62726","lon":2.1166633926609997,"lat":50.48324186425119,"postcode":"62310"},{"name":"Saint-Folquin","insee":"62748","lon":2.1257735358473457,"lat":50.937605770624536,"postcode":"62370"},{"name":"Saint-Hilaire-Cottes","insee":"62750","lon":2.397227172850719,"lat":50.56769155469702,"postcode":"62120"},{"name":"Saint-Omer","insee":"62765","lon":2.2635859388218473,"lat":50.76768763492456,"postcode":"62500"},{"name":"Saudemont","insee":"62782","lon":3.0310311565956933,"lat":50.23896610505562,"postcode":"62860"},{"name":"Vacquerie-le-Boucq","insee":"62833","lon":2.2088951163938857,"lat":50.26991677861672,"postcode":"62270"},{"name":"Vieille-Chapelle","insee":"62851","lon":2.716807683385541,"lat":50.592618476596606,"postcode":"62136"},{"name":"Wisques","insee":"62898","lon":2.1916668121370946,"lat":50.7271990141453,"postcode":"62219"},{"name":"Aubusson-d'Auvergne","insee":"63015","lon":3.5991881773440118,"lat":45.75334684270559,"postcode":"63120"},{"name":"Augnat","insee":"63017","lon":3.179736995217092,"lat":45.41396939509895,"postcode":"63340"},{"name":"Bansat","insee":"63029","lon":3.3613933256211714,"lat":45.48300954756492,"postcode":"63570"},{"name":"Beaumont-lès-Randan","insee":"63033","lon":3.38363655017811,"lat":45.996097447002754,"postcode":"63310"},{"name":"Bouzel","insee":"63049","lon":3.318414507096715,"lat":45.78062467794977,"postcode":"63910"},{"name":"Chamalières","insee":"63075","lon":3.061836398119085,"lat":45.77475899309026,"postcode":"63400"},{"name":"Chas","insee":"63096","lon":3.306586663610761,"lat":45.74727544036254,"postcode":"63160"},{"name":"Château-sur-Cher","insee":"63101","lon":2.5691168261610535,"lat":46.116543102833944,"postcode":"63330"},{"name":"Issoire","insee":"63178","lon":3.2447228542779083,"lat":45.54551474479533,"postcode":"63500"},{"name":"Larodde","insee":"63190","lon":2.5534305709061678,"lat":45.524699454791175,"postcode":"63690"},{"name":"Lisseuil","insee":"63197","lon":2.935103287335729,"lat":46.05683911278467,"postcode":"63440"},{"name":"Malintrat","insee":"63204","lon":3.191176049412935,"lat":45.81091768794205,"postcode":"63510"},{"name":"Neuville","insee":"63252","lon":3.4424866571009267,"lat":45.75109834111574,"postcode":"63160"},{"name":"Pignols","insee":"63280","lon":3.285391411913401,"lat":45.64943039853651,"postcode":"63270"},{"name":"Saint-Amant-Tallende","insee":"63315","lon":3.1096175903350276,"lat":45.66731602338746,"postcode":"63450"},{"name":"Saint-Genès-Champespe","insee":"63346","lon":2.725245643954161,"lat":45.4152782433435,"postcode":"63850"},{"name":"Saint-Pierre-la-Bourlhonne","insee":"63384","lon":3.754926021168797,"lat":45.677278892721226,"postcode":"63480"},{"name":"Saulzet-le-Froid","insee":"63407","lon":2.891931606354847,"lat":45.631198347218024,"postcode":"63970"},{"name":"Ahaxe-Alciette-Bascassan","insee":"64008","lon":-1.1635658472007675,"lat":43.14376927194673,"postcode":"64220"},{"name":"Arrast-Larrebieu","insee":"64050","lon":-0.850057087908846,"lat":43.285608295727,"postcode":"64130"},{"name":"Arrosès","insee":"64056","lon":-0.11034634469172766,"lat":43.546740792610514,"postcode":"64350"},{"name":"Buzy","insee":"64157","lon":-0.44644320539793464,"lat":43.14118742648906,"postcode":"64260"},{"name":"Cardesse","insee":"64165","lon":-0.5928311084020983,"lat":43.263401642251026,"postcode":"64360"},{"name":"Castéra-Loubix","insee":"64174","lon":-0.03513916372540287,"lat":43.406355827906786,"postcode":"64460"},{"name":"Diusse","insee":"64199","lon":-0.1713956174567142,"lat":43.56713979486044,"postcode":"64330"},{"name":"Ance Féas","insee":"64225","lon":-0.6932883951272132,"lat":43.158178298039026,"postcode":"64570"},{"name":"Gurmençon","insee":"64252","lon":-0.5994296437379876,"lat":43.1584241169688,"postcode":"64400"},{"name":"Labastide-Cézéracq","insee":"64288","lon":-0.5405138985714015,"lat":43.376241796845555,"postcode":"64170"},{"name":"Lanneplaà","insee":"64312","lon":-0.8273930826495577,"lat":43.46059379276463,"postcode":"64300"},{"name":"Larrau","insee":"64316","lon":-0.9727796976884967,"lat":43.00983770671794,"postcode":"64560"},{"name":"Lay-Lamidou","insee":"64326","lon":-0.7089328872186281,"lat":43.293477547952016,"postcode":"64190"},{"name":"Lespielle","insee":"64337","lon":-0.15505900784545557,"lat":43.46854455023162,"postcode":"64350"},{"name":"Lucgarier","insee":"64358","lon":-0.19452792428199767,"lat":43.23240020802461,"postcode":"64420"},{"name":"Mont","insee":"64396","lon":-0.6594142463531947,"lat":43.42705237716692,"postcode":"64300"},{"name":"Orion","insee":"64427","lon":-0.862644224647307,"lat":43.42042729820925,"postcode":"64390"},{"name":"Orthez","insee":"64430","lon":-0.7802470346173995,"lat":43.49421140283617,"postcode":"64300"},{"name":"Ponson-Debat-Pouts","insee":"64451","lon":-0.0492292267176381,"lat":43.33051507297397,"postcode":"64460"},{"name":"Pontacq","insee":"64453","lon":-0.10362246899082635,"lat":43.198172133751676,"postcode":"64530"},{"name":"Précilhon","insee":"64460","lon":-0.5729833850832486,"lat":43.1956583639315,"postcode":"64400"},{"name":"Rivehaute","insee":"64466","lon":-0.8594813209453925,"lat":43.34271363622695,"postcode":"64190"},{"name":"Saint-Faust","insee":"64478","lon":-0.44834355766338035,"lat":43.2703551116958,"postcode":"64110"},{"name":"Arrodets-ez-Angles","insee":"65033","lon":0.04148268996526538,"lat":43.07036321427828,"postcode":"65100"},{"name":"Aventignan","insee":"65051","lon":0.5239777000817404,"lat":43.062035010023614,"postcode":"65660"},{"name":"Barrancoueu","insee":"65066","lon":0.3254036356239926,"lat":42.9099464424313,"postcode":"65240"},{"name":"Bourisp","insee":"65106","lon":0.3412375047427226,"lat":42.83131256379133,"postcode":"65170"},{"name":"Chis","insee":"65146","lon":0.1147157240907418,"lat":43.298998204659654,"postcode":"65800"},{"name":"Estarvielle","insee":"65171","lon":0.4159655075727125,"lat":42.820645510069276,"postcode":"65240"},{"name":"Fréchet-Aure","insee":"65180","lon":0.3798304526830717,"lat":42.92623775455196,"postcode":"65240"},{"name":"Galan","insee":"65183","lon":0.4035663267086774,"lat":43.223403960155025,"postcode":"65330"},{"name":"Gerde","insee":"65198","lon":0.1776726808216334,"lat":43.05869801599897,"postcode":"65200"},{"name":"Hères","insee":"65219","lon":-0.001436080017989661,"lat":43.55028077267755,"postcode":"65700"},{"name":"Ibos","insee":"65226","lon":-0.00010300985447647303,"lat":43.24138061864062,"postcode":"65420"},{"name":"Laslades","insee":"65265","lon":0.1647517430827212,"lat":43.23046526590069,"postcode":"65350"},{"name":"Lau-Balagnas","insee":"65267","lon":-0.08848055440544347,"lat":42.99247629675749,"postcode":"65400"},{"name":"Pujo","insee":"65372","lon":0.06439192445040512,"lat":43.341507238366916,"postcode":"65500"},{"name":"Recurt","insee":"65376","lon":0.4352869155009636,"lat":43.20028196985334,"postcode":"65330"},{"name":"Thuy","insee":"65443","lon":0.24098689392918543,"lat":43.25695211495553,"postcode":"65350"},{"name":"Viey","insee":"65469","lon":0.016879933915551475,"lat":42.893074500325284,"postcode":"65120"},{"name":"Les Angles","insee":"66004","lon":2.0521611372926105,"lat":42.579775236849486,"postcode":"66210"},{"name":"Camélas","insee":"66033","lon":2.6882709046462843,"lat":42.63865809031441,"postcode":"66300"},{"name":"Canaveilles","insee":"66036","lon":2.2234460817019497,"lat":42.534463548847874,"postcode":"66360"},{"name":"Saint-Nexans","insee":"24472","lon":0.5504559357090467,"lat":44.80629413571991,"postcode":"24520"},{"name":"Saint-Pierre-de-Chignac","insee":"24484","lon":0.8632056802881922,"lat":45.11068613220533,"postcode":"24330"},{"name":"Siorac-en-Périgord","insee":"24538","lon":0.9781913609999384,"lat":44.81731005620864,"postcode":"24170"},{"name":"Vézac","insee":"24577","lon":1.1724934400562155,"lat":44.8404481847355,"postcode":"24220"},{"name":"Vitrac","insee":"24587","lon":1.2243100115219359,"lat":44.83961466099801,"postcode":"24200"},{"name":"Allondans","insee":"25013","lon":6.751923191440033,"lat":47.522239284485586,"postcode":"25550"},{"name":"Bartherans","insee":"25044","lon":5.925073987647585,"lat":47.03745532996743,"postcode":"25440"},{"name":"Baume-les-Dames","insee":"25047","lon":6.343126245722226,"lat":47.354300053677406,"postcode":"25110"},{"name":"Buffard","insee":"25098","lon":5.827898981682165,"lat":47.032837235109504,"postcode":"25440"},{"name":"Bulle","insee":"25100","lon":6.202156993743384,"lat":46.90574700668231,"postcode":"25560"},{"name":"Cendrey","insee":"25107","lon":6.245193410141048,"lat":47.39830028617472,"postcode":"25640"},{"name":"Chay","insee":"25143","lon":5.861702581152445,"lat":47.03324373177783,"postcode":"25440"},{"name":"Courchapon","insee":"25172","lon":5.751182700436204,"lat":47.25838505108754,"postcode":"25170"},{"name":"Dampierre-les-Bois","insee":"25190","lon":6.9159364869796445,"lat":47.50706764113688,"postcode":"25490"},{"name":"Dommartin","insee":"25201","lon":6.309376180132885,"lat":46.9290515893699,"postcode":"25300"},{"name":"Les Écorces","insee":"25213","lon":6.797059711877267,"lat":47.20440078863268,"postcode":"25140"},{"name":"Hérimoncourt","insee":"25304","lon":6.884858772909177,"lat":47.43616744224444,"postcode":"25310"},{"name":"Huanne-Montmartin","insee":"25310","lon":6.341954946882397,"lat":47.43166887822535,"postcode":"25680"},{"name":"Levier","insee":"25334","lon":6.112134768421914,"lat":46.95966905114194,"postcode":"25270"},{"name":"Lombard","insee":"25340","lon":5.85001138687363,"lat":47.0813620103996,"postcode":"25440"},{"name":"Palantine","insee":"25443","lon":5.941666394972336,"lat":47.09919830113124,"postcode":"25440"},{"name":"Passonfontaine","insee":"25447","lon":6.4229048183986475,"lat":47.0946155512098,"postcode":"25690"},{"name":"Pouilley-Français","insee":"25466","lon":5.842785388479886,"lat":47.206146915616344,"postcode":"25410"},{"name":"Rang","insee":"25479","lon":6.5624810608600574,"lat":47.42338676235927,"postcode":"25250"},{"name":"Rillans","insee":"25492","lon":6.366711804285491,"lat":47.413192108312764,"postcode":"25110"},{"name":"Le Russey","insee":"25512","lon":6.7351973314129605,"lat":47.155171958870675,"postcode":"25210"},{"name":"Saraz","insee":"25533","lon":5.974924098230828,"lat":46.99252268553887,"postcode":"25330"},{"name":"Trépot","insee":"25569","lon":6.169640561689675,"lat":47.16972419268504,"postcode":"25620"},{"name":"Viéthorey","insee":"25613","lon":6.422270925512337,"lat":47.4207371306343,"postcode":"25340"},{"name":"Villars-lès-Blamont","insee":"25615","lon":6.871413496862837,"lat":47.36838463968033,"postcode":"25310"},{"name":"Beaumont-en-Diois","insee":"26036","lon":5.470716645586044,"lat":44.56370552020984,"postcode":"26310"},{"name":"Bésayes","insee":"26049","lon":5.087493517849192,"lat":44.9654082752341,"postcode":"26300"},{"name":"Bouvières","insee":"26060","lon":5.221164557960594,"lat":44.520910475779424,"postcode":"26460"},{"name":"Charpey","insee":"26079","lon":5.079787709469999,"lat":44.94346627973259,"postcode":"26300"},{"name":"Châteaudouble","insee":"26081","lon":5.091112425720158,"lat":44.899415493642465,"postcode":"26120"},{"name":"Crépol","insee":"26107","lon":5.069170266519955,"lat":45.17533855949365,"postcode":"26350"},{"name":"Fay-le-Clos","insee":"26133","lon":4.907053049614261,"lat":45.21997144287878,"postcode":"26240"},{"name":"Mévouillon","insee":"26181","lon":5.479197773644458,"lat":44.234684504939565,"postcode":"26560"},{"name":"La Penne-sur-l'Ouvèze","insee":"26229","lon":5.2331271510558235,"lat":44.25055623643703,"postcode":"26170"},{"name":"Portes-lès-Valence","insee":"26252","lon":4.883480066641879,"lat":44.87558945451189,"postcode":"26800"},{"name":"Saint-Andéol","insee":"26291","lon":5.262181106720724,"lat":44.80796626847494,"postcode":"26150"},{"name":"Saint-Sauveur-en-Diois","insee":"26328","lon":5.166885675728094,"lat":44.673966694981324,"postcode":"26340"},{"name":"Salles-sous-Bois","insee":"26335","lon":4.9399931651651405,"lat":44.4703109129885,"postcode":"26770"},{"name":"Teyssières","insee":"26350","lon":5.142975314359395,"lat":44.4575678611621,"postcode":"26220"},{"name":"Vachères-en-Quint","insee":"26359","lon":5.250675397318217,"lat":44.78585063012969,"postcode":"26150"},{"name":"Acon","insee":"27002","lon":1.104719944590323,"lat":48.769858373338536,"postcode":"27570"},{"name":"Amfreville-sur-Iton","insee":"27014","lon":1.1468683740645826,"lat":49.15675029306395,"postcode":"27400"},{"name":"Boissey-le-Châtel","insee":"27077","lon":0.7823223418646739,"lat":49.27257863150344,"postcode":"27520"},{"name":"Flancourt-Crescy-en-Roumois","insee":"27085","lon":0.775106145712034,"lat":49.32410964608079,"postcode":"27310"},{"name":"Thénouville","insee":"27089","lon":0.7798088584822838,"lat":49.29479878344308,"postcode":"27520"},{"name":"Bosroumois","insee":"27090","lon":0.9188747616371704,"lat":49.289300373870574,"postcode":"27670"},{"name":"Les Bottereaux","insee":"27096","lon":0.6763677037056921,"lat":48.871309004902784,"postcode":"27250"},{"name":"Brétigny","insee":"27113","lon":0.6630217183332319,"lat":49.21481638277276,"postcode":"27800"},{"name":"Corneville-sur-Risle","insee":"27174","lon":0.5972704815617302,"lat":49.34099602804632,"postcode":"27500"},{"name":"La Couture-Boussey","insee":"27183","lon":1.3963933174754726,"lat":48.90210793461931,"postcode":"27750"},{"name":"Croth","insee":"27193","lon":1.3683192897472831,"lat":48.85109063938039,"postcode":"27530"},{"name":"La Ferrière-sur-Risle","insee":"27240","lon":0.7859688475484313,"lat":48.97812122105771,"postcode":"27760"},{"name":"Gournay-le-Guérin","insee":"27291","lon":0.7690494011461876,"lat":48.716409797012474,"postcode":"27580"},{"name":"Montfort-sur-Risle","insee":"27413","lon":0.6705155990491106,"lat":49.29485754131817,"postcode":"27290"},{"name":"Morsan","insee":"27418","lon":0.5965356193877653,"lat":49.179997898451525,"postcode":"27800"},{"name":"Plainville","insee":"27460","lon":0.49990337780086386,"lat":49.079093548216925,"postcode":"27300"},{"name":"Plasnes","insee":"27463","lon":0.6245126843777475,"lat":49.137601479605,"postcode":"27300"},{"name":"Porte-de-Seine","insee":"27471","lon":1.2533753473292908,"lat":49.2640838299855,"postcode":"27430"},{"name":"Prey","insee":"27478","lon":1.2195312795158095,"lat":48.95798051961879,"postcode":"27220"},{"name":"Rougemontiers","insee":"27497","lon":0.7239493194421568,"lat":49.35819592845673,"postcode":"27350"},{"name":"Rouge-Perriers","insee":"27498","lon":0.8328347043160935,"lat":49.146763387268166,"postcode":"27110"},{"name":"Rouvray","insee":"27501","lon":1.3398378808445188,"lat":49.066112614785375,"postcode":"27120"},{"name":"Rugles","insee":"27502","lon":0.6914346669662049,"lat":48.816123532431355,"postcode":"27250"},{"name":"Saint-Georges-du-Vièvre","insee":"27542","lon":0.5803842402441848,"lat":49.24225915569673,"postcode":"27450"},{"name":"Saint-Laurent-des-Bois","insee":"27555","lon":1.319746699165966,"lat":48.84575738273505,"postcode":"27220"},{"name":"Saint-Pierre-du-Bosguérard","insee":"27595","lon":0.8904854090931162,"lat":49.26013247441167,"postcode":"27370"},{"name":"Saint-Victor-sur-Avre","insee":"27610","lon":0.8507549248311169,"lat":48.696142870469174,"postcode":"27130"},{"name":"Touffreville","insee":"27649","lon":1.4364218984654145,"lat":49.34488019607616,"postcode":"27440"},{"name":"Charonville","insee":"28081","lon":1.3102991908433068,"lat":48.2833564149942,"postcode":"28120"},{"name":"Boitron","insee":"77043","lon":3.2620286360979174,"lat":48.89712975707277,"postcode":"77750"},{"name":"Coulommiers","insee":"77131","lon":3.091272903045012,"lat":48.81234094132677,"postcode":"77120"},{"name":"Fontainebleau","insee":"77186","lon":2.6809239511236007,"lat":48.40651540094804,"postcode":"77300"},{"name":"Liverdy-en-Brie","insee":"77254","lon":2.7800795153291684,"lat":48.69525997788864,"postcode":"77220"},{"name":"Le Mesnil-Amelot","insee":"77291","lon":2.5963830181265424,"lat":49.016113678359574,"postcode":"77990"},{"name":"Pontcarré","insee":"77374","lon":2.7080775302511317,"lat":48.79614016364437,"postcode":"77135"},{"name":"Saint-Germain-Laval","insee":"77409","lon":2.9951236167806887,"lat":48.40897368103948,"postcode":"77130"},{"name":"Sammeron","insee":"77440","lon":3.076680753095364,"lat":48.94211290527459,"postcode":"77260"},{"name":"Varennes-sur-Seine","insee":"77482","lon":2.930845367960744,"lat":48.36856400073029,"postcode":"77130"},{"name":"Villeroy","insee":"77515","lon":2.782579968574651,"lat":48.982981267405115,"postcode":"77410"},{"name":"Villiers-sur-Seine","insee":"77522","lon":3.38329143683284,"lat":48.45673107061325,"postcode":"77114"},{"name":"Merrey","insee":"52320","lon":5.592286565303163,"lat":48.052904847474814,"postcode":"52240"},{"name":"Mertrud","insee":"52321","lon":4.884191570074073,"lat":48.425208400502605,"postcode":"52110"},{"name":"Vesaignes-sur-Marne","insee":"52518","lon":5.2633513456329934,"lat":48.000328973661226,"postcode":"52800"},{"name":"Ville-en-Blaisois","insee":"52528","lon":4.950595691186086,"lat":48.44156947858512,"postcode":"52130"},{"name":"La Chapelle-Craonnaise","insee":"53058","lon":-0.9093067842984075,"lat":47.90216026380838,"postcode":"53230"},{"name":"Gastines","insee":"53102","lon":-1.1123366125749194,"lat":47.94028918729454,"postcode":"53540"},{"name":"Mayenne","insee":"53147","lon":-0.6147341665601683,"lat":48.30731063508314,"postcode":"53100"},{"name":"Le Pas","insee":"53176","lon":-0.6948763495296252,"lat":48.421869697886116,"postcode":"53300"},{"name":"Saint-Georges-sur-Erve","insee":"53221","lon":-0.29272910166803195,"lat":48.17733804520756,"postcode":"53600"},{"name":"Vimartin-sur-Orthe","insee":"53249","lon":-0.21843381822510366,"lat":48.21603716266486,"postcode":"53160"},{"name":"Anthelupt","insee":"54020","lon":6.4145939757028305,"lat":48.60266056373023,"postcode":"54110"},{"name":"Armaucourt","insee":"54021","lon":6.299016229529526,"lat":48.8123399595491,"postcode":"54760"},{"name":"Belleau","insee":"54059","lon":6.186937108770311,"lat":48.84889188426272,"postcode":"54610"},{"name":"Bezange-la-Grande","insee":"54071","lon":6.472834950775477,"lat":48.74778931058589,"postcode":"54370"},{"name":"Bicqueley","insee":"54073","lon":5.925255137626401,"lat":48.623549870776074,"postcode":"54200"},{"name":"Faulx","insee":"54188","lon":6.198664967648832,"lat":48.792990255679626,"postcode":"54760"},{"name":"Forcelles-sous-Gugney","insee":"54204","lon":6.085052057548362,"lat":48.39304478787181,"postcode":"54930"},{"name":"Gogney","insee":"54230","lon":6.869795156491626,"lat":48.614730880289734,"postcode":"54450"},{"name":"Griscourt","insee":"54239","lon":6.017506098785086,"lat":48.841486223404374,"postcode":"54380"},{"name":"Haigneville","insee":"54245","lon":6.340719641560775,"lat":48.484502198646986,"postcode":"54290"},{"name":"Jeandelaincourt","insee":"54276","lon":6.243583291411303,"lat":48.84687528066126,"postcode":"54114"},{"name":"Landécourt","insee":"54293","lon":6.421441431592971,"lat":48.50272851049443,"postcode":"54360"},{"name":"Mairy-Mainville","insee":"54334","lon":5.854724222375338,"lat":49.30448081947324,"postcode":"54150"},{"name":"Moineville","insee":"54371","lon":5.947383017957691,"lat":49.196711321213186,"postcode":"54580"},{"name":"Omelmont","insee":"54409","lon":6.118757386488903,"lat":48.49346829365301,"postcode":"54330"},{"name":"Othe","insee":"54412","lon":5.447477457210003,"lat":49.491417235554074,"postcode":"54260"},{"name":"Pierre-la-Treiche","insee":"54426","lon":5.964050181650698,"lat":48.639955903411995,"postcode":"54200"},{"name":"Romain","insee":"54461","lon":6.356141691374,"lat":48.52040071511193,"postcode":"54360"},{"name":"Tellancourt","insee":"54514","lon":5.630493782362386,"lat":49.509017838457154,"postcode":"54260"},{"name":"Montbel","insee":"09200","lon":1.967381638640822,"lat":42.978451171521755,"postcode":"09600"},{"name":"Le Port","insee":"09231","lon":1.385824426223424,"lat":42.83586711117802,"postcode":"09320"},{"name":"Sieuras","insee":"09294","lon":1.344368231086843,"lat":43.19239346081823,"postcode":"09130"},{"name":"Soueix-Rogalle","insee":"09299","lon":1.194381727222153,"lat":42.89665254347665,"postcode":"09140"},{"name":"Vaychis","insee":"09325","lon":1.8211571924910102,"lat":42.74372248143895,"postcode":"09110"},{"name":"Le Vernet","insee":"09331","lon":1.6032986629464663,"lat":43.18722761325371,"postcode":"09700"},{"name":"Aubeterre","insee":"10015","lon":4.107743721331387,"lat":48.422557584233765,"postcode":"10150"},{"name":"Bétignicourt","insee":"10044","lon":4.454927976724999,"lat":48.44953059290165,"postcode":"10500"},{"name":"Blaincourt-sur-Aube","insee":"10046","lon":4.452505160396622,"lat":48.38158138556073,"postcode":"10500"},{"name":"Bouy-Luxembourg","insee":"10056","lon":4.242822440911642,"lat":48.374971733206735,"postcode":"10220"},{"name":"Briel-sur-Barse","insee":"10062","lon":4.354068381592371,"lat":48.21317853471489,"postcode":"10140"},{"name":"Buchères","insee":"10067","lon":4.114107989609598,"lat":48.23681691760953,"postcode":"10800"},{"name":"Chaudrey","insee":"10091","lon":4.243622312535442,"lat":48.48423368859387,"postcode":"10240"},{"name":"Fouchères","insee":"10158","lon":4.27129104392053,"lat":48.14876335676217,"postcode":"10260"},{"name":"Longpré-le-Sec","insee":"10205","lon":4.527964069793738,"lat":48.18765881930359,"postcode":"10140"},{"name":"Maisons-lès-Soulaines","insee":"10219","lon":4.783113520433649,"lat":48.295038035624856,"postcode":"10200"},{"name":"Neuville-sur-Vanne","insee":"10263","lon":3.7749254842532762,"lat":48.25232484070383,"postcode":"10190"},{"name":"Plessis-Barbuise","insee":"10291","lon":3.586595379980806,"lat":48.573433327306375,"postcode":"10400"},{"name":"Prugny","insee":"10307","lon":3.9429634562270808,"lat":48.24742254012538,"postcode":"10190"},{"name":"Rouilly-Saint-Loup","insee":"10329","lon":4.1490398679704334,"lat":48.26485167488977,"postcode":"10800"},{"name":"Saint-Hilaire-sous-Romilly","insee":"10341","lon":3.6578131958667743,"lat":48.498213545864026,"postcode":"10100"},{"name":"Pia","insee":"66141","lon":2.914833565306231,"lat":42.74912840682413,"postcode":"66380"},{"name":"Saint-Estève","insee":"66172","lon":2.8462425116090646,"lat":42.71513692279272,"postcode":"66240"},{"name":"Benfeld","insee":"67028","lon":7.601888155555736,"lat":48.36539802535762,"postcode":"67230"},{"name":"Bischheim","insee":"67043","lon":7.759242536631599,"lat":48.62172255353046,"postcode":"67800"},{"name":"Bossendorf","insee":"67058","lon":7.5667385582213145,"lat":48.78097945817385,"postcode":"67270"},{"name":"Breuschwickersheim","insee":"67065","lon":7.598987689236358,"lat":48.578252134443645,"postcode":"67112"},{"name":"Bust","insee":"67071","lon":7.235382321664989,"lat":48.83332865841862,"postcode":"67320"},{"name":"Butten","insee":"67072","lon":7.243951060720747,"lat":48.97114077628448,"postcode":"67430"},{"name":"Climbach","insee":"67075","lon":7.850512303488156,"lat":49.01594546166681,"postcode":"67510"},{"name":"Diemeringen","insee":"67095","lon":7.2041014575228735,"lat":48.94387295735864,"postcode":"67430"},{"name":"Dingsheim","insee":"67097","lon":7.661023985899094,"lat":48.623021602811285,"postcode":"67370"},{"name":"Frohmuhl","insee":"67148","lon":7.279612582177459,"lat":48.911640568772405,"postcode":"67290"},{"name":"Gresswiller","insee":"67168","lon":7.409818495449066,"lat":48.52555049664655,"postcode":"67190"},{"name":"Gumbrechtshoffen","insee":"67174","lon":7.621308634531706,"lat":48.90370390553113,"postcode":"67110"},{"name":"Harskirchen","insee":"67183","lon":7.026500279776729,"lat":48.92383229693332,"postcode":"67260"},{"name":"Hilsenheim","insee":"67196","lon":7.573399284992672,"lat":48.29701276660486,"postcode":"67600"},{"name":"Hipsheim","insee":"67200","lon":7.679838337412052,"lat":48.46542447775326,"postcode":"67150"},{"name":"Kesseldorf","insee":"67235","lon":8.059070946488882,"lat":48.88508949970965,"postcode":"67930"},{"name":"Kirrberg","insee":"67241","lon":7.063892860293136,"lat":48.83059881020316,"postcode":"67320"},{"name":"Marmoutier","insee":"67283","lon":7.370450280735221,"lat":48.69488789794115,"postcode":"67440"},{"name":"Seebach","insee":"67351","lon":7.991004810175292,"lat":48.96437648958421,"postcode":"67160"},{"name":"Olwisheim","insee":"67361","lon":7.674213391617767,"lat":48.69765970273155,"postcode":"67170"},{"name":"Plobsheim","insee":"67378","lon":7.735335032879528,"lat":48.46102279632135,"postcode":"67115"},{"name":"Reipertswiller","insee":"67392","lon":7.446199806176381,"lat":48.94775730210799,"postcode":"67340"},{"name":"Saales","insee":"67421","lon":7.110088652858355,"lat":48.35197721186578,"postcode":"67420"},{"name":"Saessolsheim","insee":"67423","lon":7.512961771397247,"lat":48.70849678707774,"postcode":"67270"},{"name":"Schirmeck","insee":"67448","lon":7.1985314499440705,"lat":48.49216846669897,"postcode":"67130"},{"name":"Schœnbourg","insee":"67454","lon":7.266506105619197,"lat":48.83396304838591,"postcode":"67320"},{"name":"Schwenheim","insee":"67459","lon":7.410586940730906,"lat":48.71483020403013,"postcode":"67440"},{"name":"Uttenhoffen","insee":"67502","lon":7.645698391951266,"lat":48.89327864217674,"postcode":"67110"},{"name":"Wangen","insee":"67517","lon":7.463362581654543,"lat":48.61924332667443,"postcode":"67520"},{"name":"Wildersbach","insee":"67531","lon":7.223620105930476,"lat":48.435438053908655,"postcode":"67130"},{"name":"Wintzenbach","insee":"67541","lon":8.104630122788015,"lat":48.932337386432415,"postcode":"67470"},{"name":"Biesheim","insee":"68036","lon":7.5369019420004655,"lat":48.0502528146731,"postcode":"68600"},{"name":"Bollwiller","insee":"68043","lon":7.2517511591956145,"lat":47.85422452545408,"postcode":"68540"},{"name":"Fislis","insee":"68092","lon":7.382298263212038,"lat":47.51369417457539,"postcode":"68480"},{"name":"Gunsbach","insee":"68117","lon":7.165260601856037,"lat":48.06162238439193,"postcode":"68140"},{"name":"Hindlingen","insee":"68137","lon":7.141981733591791,"lat":47.57027891332502,"postcode":"68580"},{"name":"Lauw","insee":"68179","lon":7.02082999005663,"lat":47.76219064241473,"postcode":"68290"},{"name":"Leymen","insee":"68182","lon":7.484583341692276,"lat":47.5001596934635,"postcode":"68220"},{"name":"Mertzen","insee":"68202","lon":7.129081234537567,"lat":47.58715277796387,"postcode":"68210"},{"name":"Neuwiller","insee":"68232","lon":7.513858878222933,"lat":47.52439649651214,"postcode":"68220"},{"name":"Rammersmatt","insee":"68261","lon":7.0583368712991055,"lat":47.79409204752896,"postcode":"68800"},{"name":"Ranspach-le-Haut","insee":"68264","lon":7.419373919789994,"lat":47.579839743028955,"postcode":"68220"},{"name":"Saint-Amarin","insee":"68292","lon":7.0416940231751255,"lat":47.88812625284609,"postcode":"68550"},{"name":"Saint-Hippolyte","insee":"68296","lon":7.344946962656455,"lat":48.23891494359743,"postcode":"68590"},{"name":"Saint-Ulrich","insee":"68299","lon":7.112609315270538,"lat":47.591184854253335,"postcode":"68210"},{"name":"Thann","insee":"68334","lon":7.094667531900925,"lat":47.81408871648506,"postcode":"68800"},{"name":"Wentzwiller","insee":"68362","lon":7.473033521322993,"lat":47.54776596815863,"postcode":"68220"},{"name":"Wihr-au-Val","insee":"68368","lon":7.197994638235197,"lat":48.054754450721084,"postcode":"68230"},{"name":"Zellenberg","insee":"68383","lon":7.340975655518535,"lat":48.173802766370805,"postcode":"68340"},{"name":"Val d'Oingt","insee":"69024","lon":4.57249134971661,"lat":45.93567682219676,"postcode":"69620"},{"name":"Corcelles-en-Beaujolais","insee":"69065","lon":4.725482692739303,"lat":46.15369774985953,"postcode":"69220"},{"name":"Denicé","insee":"69074","lon":4.651715420545539,"lat":46.00477416113883,"postcode":"69640"},{"name":"Longes","insee":"69119","lon":4.679809323478031,"lat":45.50435709283469,"postcode":"69420"},{"name":"Orliénas","insee":"69148","lon":4.720416852722806,"lat":45.66120348056638,"postcode":"69530"},{"name":"Oullins","insee":"69149","lon":4.803133610075479,"lat":45.71527687215187,"postcode":"69600"},{"name":"Saint-Bonnet-des-Bruyères","insee":"69182","lon":4.471974418732403,"lat":46.266423592831224,"postcode":"69790"},{"name":"Saint-Cyr-sur-le-Rhône","insee":"69193","lon":4.832075873994817,"lat":45.51683668224437,"postcode":"69560"},{"name":"Saint-Fons","insee":"69199","lon":4.85053361149229,"lat":45.701522082179785,"postcode":"69190"},{"name":"Saint-Julien","insee":"69215","lon":4.651522622979252,"lat":46.023058993393235,"postcode":"69640"},{"name":"Sainte-Paule","insee":"69230","lon":4.562555264543219,"lat":45.9715579733329,"postcode":"69620"},{"name":"Vourles","insee":"69268","lon":4.768213368837237,"lat":45.657911556253204,"postcode":"69390"},{"name":"Marennes","insee":"69281","lon":4.907268222574116,"lat":45.623010821823094,"postcode":"69970"},{"name":"Autoreille","insee":"70039","lon":5.825295075393792,"lat":47.370630876639744,"postcode":"70700"},{"name":"Cendrecourt","insee":"70114","lon":5.938273508510182,"lat":47.839532653015986,"postcode":"70500"},{"name":"Chemilly","insee":"70148","lon":6.018471892043396,"lat":47.641974387909904,"postcode":"70360"},{"name":"Mignavillers","insee":"70347","lon":6.553853993983435,"lat":47.58691440333423,"postcode":"70400"},{"name":"Onay","insee":"70394","lon":5.685738412684377,"lat":47.391455046237176,"postcode":"70100"},{"name":"Ouge","insee":"70400","lon":5.70048343267838,"lat":47.7989620703621,"postcode":"70500"},{"name":"Raddon-et-Chapendu","insee":"70435","lon":6.452941978182491,"lat":47.85610596736704,"postcode":"70280"},{"name":"Seveux-Motey","insee":"70491","lon":5.765371010778142,"lat":47.53423695203026,"postcode":"70130"},{"name":"Velesmes-Échevanne","insee":"70528","lon":5.690589061931215,"lat":47.42184937300642,"postcode":"70100"},{"name":"Velloreille-lès-Choye","insee":"70540","lon":5.723658069117726,"lat":47.39017954115552,"postcode":"70700"},{"name":"Berzé-la-Ville","insee":"71032","lon":4.702599393436223,"lat":46.368124038359205,"postcode":"71960"},{"name":"Blanzy","insee":"71040","lon":4.392761134366617,"lat":46.704453395396584,"postcode":"71450"},{"name":"Bragny-sur-Saône","insee":"71054","lon":5.031760061008115,"lat":46.92115292073735,"postcode":"71350"},{"name":"Champagnat","insee":"71079","lon":5.369344611593849,"lat":46.48333030592948,"postcode":"71480"},{"name":"Genouilly","insee":"71214","lon":4.568468817840911,"lat":46.65333429176689,"postcode":"71460"},{"name":"Grury","insee":"71227","lon":3.9131188261015657,"lat":46.66483773345569,"postcode":"71760"},{"name":"Jouvençon","insee":"71244","lon":5.052571550607634,"lat":46.576569376793536,"postcode":"71290"},{"name":"Montagny-lès-Buxy","insee":"71302","lon":4.669522163971148,"lat":46.705019528114114,"postcode":"71390"},{"name":"Montjay","insee":"71314","lon":5.299515968788961,"lat":46.80555293354822,"postcode":"71310"},{"name":"Ozenay","insee":"71338","lon":4.843329845951483,"lat":46.53541426154968,"postcode":"71700"},{"name":"Saint-Julien-de-Civry","insee":"71433","lon":4.2214528116255945,"lat":46.37296706313114,"postcode":"71800"},{"name":"Saint-Pierre-le-Vieux","insee":"71469","lon":4.525486929388892,"lat":46.28776217313208,"postcode":"71520"},{"name":"Saint-Romain-sous-Versigny","insee":"71478","lon":4.184791910536592,"lat":46.65244245093513,"postcode":"71420"},{"name":"Saint-Symphorien-de-Marmagne","insee":"71482","lon":4.318519192852353,"lat":46.828542456410844,"postcode":"71710"},{"name":"Saint-Vincent-en-Bresse","insee":"71489","lon":5.060378064690216,"lat":46.6710616437721,"postcode":"71440"},